[
  {
    "id": 1,
    "town_name": "かき道１丁目",
    "town_code": "1181",
    "households": 401,
    "total_population": 818,
    "population_age_65_and_over": 265,
    "population_age_75_and_over": 139,
    "aging_rate": 32.4,
    "late_elderly_rate": 16.99,
    "latitude": 32.7707542,
    "longitude": 129.9541381,
    "population_reference_date": "2025-12-31"
  },
  {
    "id": 2,
    "town_name": "かき道３丁目",
    "town_code": "1183",
    "households": 619,
    "total_population": 1295,
    "population_age_65_and_over": 454,
    "population_age_75_and_over": 216,
    "aging_rate": 35.06,
    "late_elderly_rate": 16.68,
    "latitude": 32.772226,
    "longitude": 129.9642209,
    "population_reference_date": "2025-12-31"
  },
  {
    "id": 3,
    "town_name": "かき道２丁目",
    "town_code": "1182",
    "households": 654,
    "total_population": 1479,
    "population_age_65_and_over": 626,
    "population_age_75_and_over": 317,
    "aging_rate": 42.33,
    "late_elderly_rate": 21.43,
    "latitude": 32.7730077,
    "longitude": 129.958472,
    "population_reference_date": "2025-12-31"
  },
  {
    "id": 4,
    "town_name": "かき道５丁目",
    "town_code": "1185",
    "households": 520,
    "total_population": 1184,
    "population_age_65_and_over": 274,
    "population_age_75_and_over": 119,
    "aging_rate": 23.14,
    "late_elderly_rate": 10.05,
    "latitude": 32.7678867,
    "longitude": 129.9598357,
    "population_reference_date": "2025-12-31"
  },
  {
    "id": 5,
    "town_name": "かき道６丁目",
    "town_code": "1186",
    "households": 84,
    "total_population": 164,
    "population_age_65_and_over": 58,
    "population_age_75_and_over": 40,
    "aging_rate": 35.37,
    "late_elderly_rate": 24.39,
    "latitude": 32.7653769,
    "longitude": 129.9607464,
    "population_reference_date": "2025-12-31"
  },
  {
    "id": 6,
    "town_name": "かき道４丁目",
    "town_code": "1184",
    "households": 709,
    "total_population": 1577,
    "population_age_65_and_over": 753,
    "population_age_75_and_over": 276,
    "aging_rate": 47.75,
    "late_elderly_rate": 17.5,
    "latitude": 32.7677433,
    "longitude": 129.9638148,
    "population_reference_date": "2025-12-31"
  },
  {
    "id": 7,
    "town_name": "けやき台町",
    "town_code": "6560",
    "households": 250,
    "total_population": 752,
    "population_age_65_and_over": 55,
    "population_age_75_and_over": 30,
    "aging_rate": 7.31,
    "late_elderly_rate": 3.99,
    "latitude": 32.7966626,
    "longitude": 129.8797236,
    "population_reference_date": "2025-12-31"
  },
  {
    "id": 8,
    "town_name": "さくらの里１丁目",
    "town_code": "3401",
    "households": 556,
    "total_population": 1456,
    "population_age_65_and_over": 190,
    "population_age_75_and_over": 78,
    "aging_rate": 13.05,
    "late_elderly_rate": 5.36,
    "latitude": 32.8322225,
    "longitude": 129.7701842,
    "population_reference_date": "2025-12-31"
  },
  {
    "id": 9,
    "town_name": "さくらの里３丁目",
    "town_code": "3403",
    "households": 8,
    "total_population": 13,
    "population_age_65_and_over": 7,
    "population_age_75_and_over": 1,
    "aging_rate": 53.85,
    "late_elderly_rate": 7.69,
    "latitude": 32.8272142,
    "longitude": 129.7606898,
    "population_reference_date": "2025-12-31"
  },
  {
    "id": 10,
    "town_name": "さくらの里２丁目",
    "town_code": "3402",
    "households": 599,
    "total_population": 1921,
    "population_age_65_and_over": 152,
    "population_age_75_and_over": 59,
    "aging_rate": 7.91,
    "late_elderly_rate": 3.07,
    "latitude": 32.8322765,
    "longitude": 129.7650127,
    "population_reference_date": "2025-12-31"
  },
  {
    "id": 11,
    "town_name": "つつじが丘１丁目",
    "town_code": "1211",
    "households": 259,
    "total_population": 536,
    "population_age_65_and_over": 232,
    "population_age_75_and_over": 160,
    "aging_rate": 43.28,
    "late_elderly_rate": 29.85,
    "latitude": 32.8037134,
    "longitude": 129.9613466,
    "population_reference_date": "2025-12-31"
  },
  {
    "id": 12,
    "town_name": "つつじが丘３丁目",
    "town_code": "1213",
    "households": 187,
    "total_population": 401,
    "population_age_65_and_over": 156,
    "population_age_75_and_over": 96,
    "aging_rate": 38.9,
    "late_elderly_rate": 23.94,
    "latitude": 32.8078059,
    "longitude": 129.9596901,
    "population_reference_date": "2025-12-31"
  },
  {
    "id": 13,
    "town_name": "つつじが丘２丁目",
    "town_code": "1212",
    "households": 221,
    "total_population": 445,
    "population_age_65_and_over": 195,
    "population_age_75_and_over": 123,
    "aging_rate": 43.82,
    "late_elderly_rate": 27.64,
    "latitude": 32.8042717,
    "longitude": 129.9598348,
    "population_reference_date": "2025-12-31"
  },
  {
    "id": 14,
    "town_name": "つつじが丘５丁目",
    "town_code": "1215",
    "households": 198,
    "total_population": 418,
    "population_age_65_and_over": 166,
    "population_age_75_and_over": 103,
    "aging_rate": 39.71,
    "late_elderly_rate": 24.64,
    "latitude": 32.8098428,
    "longitude": 129.9618741,
    "population_reference_date": "2025-12-31"
  },
  {
    "id": 15,
    "town_name": "つつじが丘４丁目",
    "town_code": "1214",
    "households": 355,
    "total_population": 712,
    "population_age_65_and_over": 261,
    "population_age_75_and_over": 171,
    "aging_rate": 36.66,
    "late_elderly_rate": 24.02,
    "latitude": 32.8075496,
    "longitude": 129.962252,
    "population_reference_date": "2025-12-31"
  },
  {
    "id": 16,
    "town_name": "みなと坂１丁目",
    "town_code": "3041",
    "households": 558,
    "total_population": 1809,
    "population_age_65_and_over": 136,
    "population_age_75_and_over": 70,
    "aging_rate": 7.52,
    "late_elderly_rate": 3.87,
    "latitude": 32.7302099,
    "longitude": 129.8358187,
    "population_reference_date": "2025-12-31"
  },
  {
    "id": 17,
    "town_name": "みなと坂２丁目",
    "town_code": "3042",
    "households": 470,
    "total_population": 1618,
    "population_age_65_and_over": 97,
    "population_age_75_and_over": 34,
    "aging_rate": 6.0,
    "late_elderly_rate": 2.1,
    "latitude": 32.7348597,
    "longitude": 129.836329,
    "population_reference_date": "2025-12-31"
  },
  {
    "id": 18,
    "town_name": "エミネント葉山町",
    "town_code": "6730",
    "households": 400,
    "total_population": 833,
    "population_age_65_and_over": 420,
    "population_age_75_and_over": 196,
    "aging_rate": 50.42,
    "late_elderly_rate": 23.53,
    "latitude": 32.8016816,
    "longitude": 129.8441549,
    "population_reference_date": "2025-12-31"
  },
  {
    "id": 19,
    "town_name": "ﾀﾞｲﾔﾗﾝﾄﾞ１丁目",
    "town_code": "5021",
    "households": 459,
    "total_population": 973,
    "population_age_65_and_over": 449,
    "population_age_75_and_over": 260,
    "aging_rate": 46.15,
    "late_elderly_rate": 26.72,
    "latitude": 32.703516,
    "longitude": 129.8631025,
    "population_reference_date": "2025-12-31"
  },
  {
    "id": 20,
    "town_name": "ﾀﾞｲﾔﾗﾝﾄﾞ３丁目",
    "town_code": "5023",
    "households": 593,
    "total_population": 1292,
    "population_age_65_and_over": 605,
    "population_age_75_and_over": 265,
    "aging_rate": 46.83,
    "late_elderly_rate": 20.51,
    "latitude": 32.7010119,
    "longitude": 129.8541663,
    "population_reference_date": "2025-12-31"
  },
  {
    "id": 21,
    "town_name": "ﾀﾞｲﾔﾗﾝﾄﾞ２丁目",
    "town_code": "5022",
    "households": 583,
    "total_population": 1219,
    "population_age_65_and_over": 588,
    "population_age_75_and_over": 332,
    "aging_rate": 48.24,
    "late_elderly_rate": 27.24,
    "latitude": 32.7038141,
    "longitude": 129.8581594,
    "population_reference_date": "2025-12-31"
  },
  {
    "id": 22,
    "town_name": "ﾀﾞｲﾔﾗﾝﾄﾞ４丁目",
    "town_code": "5024",
    "households": 463,
    "total_population": 936,
    "population_age_65_and_over": 351,
    "population_age_75_and_over": 170,
    "aging_rate": 37.5,
    "late_elderly_rate": 18.16,
    "latitude": 32.6991491,
    "longitude": 129.8564492,
    "population_reference_date": "2025-12-31"
  },
  {
    "id": 23,
    "town_name": "万屋町",
    "town_code": "400",
    "households": 536,
    "total_population": 830,
    "population_age_65_and_over": 254,
    "population_age_75_and_over": 148,
    "aging_rate": 30.6,
    "late_elderly_rate": 17.83,
    "latitude": 32.7453418,
    "longitude": 129.8788679,
    "population_reference_date": "2025-12-31"
  },
  {
    "id": 24,
    "town_name": "万才町",
    "town_code": "590",
    "households": 305,
    "total_population": 572,
    "population_age_65_and_over": 134,
    "population_age_75_and_over": 53,
    "aging_rate": 23.43,
    "late_elderly_rate": 9.27,
    "latitude": 32.7465341,
    "longitude": 129.8751254,
    "population_reference_date": "2025-12-31"
  },
  {
    "id": 25,
    "town_name": "三ツ山町",
    "town_code": "6610",
    "households": 611,
    "total_population": 763,
    "population_age_65_and_over": 583,
    "population_age_75_and_over": 514,
    "aging_rate": 76.41,
    "late_elderly_rate": 67.37,
    "latitude": 32.8027141,
    "longitude": 129.9073231,
    "population_reference_date": "2025-12-31"
  },
  {
    "id": 26,
    "town_name": "三京町",
    "town_code": "3350",
    "households": 600,
    "total_population": 1413,
    "population_age_65_and_over": 343,
    "population_age_75_and_over": 224,
    "aging_rate": 24.27,
    "late_elderly_rate": 15.85,
    "latitude": 32.8326325,
    "longitude": 129.7578724,
    "population_reference_date": "2025-12-31"
  },
  {
    "id": 28,
    "town_name": "三原１丁目",
    "town_code": "6271",
    "households": 1284,
    "total_population": 2504,
    "population_age_65_and_over": 827,
    "population_age_75_and_over": 439,
    "aging_rate": 33.03,
    "late_elderly_rate": 17.53,
    "latitude": 32.7816595,
    "longitude": 129.8792516,
    "population_reference_date": "2025-12-31"
  },
  {
    "id": 29,
    "town_name": "三原２丁目",
    "town_code": "6272",
    "households": 1103,
    "total_population": 2135,
    "population_age_65_and_over": 870,
    "population_age_75_and_over": 535,
    "aging_rate": 40.75,
    "late_elderly_rate": 25.06,
    "latitude": 32.7834787,
    "longitude": 129.8837479,
    "population_reference_date": "2025-12-31"
  },
  {
    "id": 30,
    "town_name": "三和町",
    "town_code": "5150",
    "households": 374,
    "total_population": 696,
    "population_age_65_and_over": 279,
    "population_age_75_and_over": 159,
    "aging_rate": 40.09,
    "late_elderly_rate": 22.84,
    "latitude": 32.6937416,
    "longitude": 129.8501192,
    "population_reference_date": "2025-12-31"
  },
  {
    "id": 31,
    "town_name": "三川町",
    "town_code": "6590",
    "households": 908,
    "total_population": 1741,
    "population_age_65_and_over": 700,
    "population_age_75_and_over": 427,
    "aging_rate": 40.21,
    "late_elderly_rate": 24.53,
    "latitude": 32.7879942,
    "longitude": 129.8953512,
    "population_reference_date": "2025-12-31"
  },
  {
    "id": 32,
    "town_name": "三景台町",
    "town_code": "500",
    "households": 420,
    "total_population": 945,
    "population_age_65_and_over": 367,
    "population_age_75_and_over": 203,
    "aging_rate": 38.84,
    "late_elderly_rate": 21.48,
    "latitude": 32.726449,
    "longitude": 129.8966476,
    "population_reference_date": "2025-12-31"
  },
  {
    "id": 33,
    "town_name": "三芳町",
    "town_code": "6860",
    "households": 715,
    "total_population": 1364,
    "population_age_65_and_over": 280,
    "population_age_75_and_over": 140,
    "aging_rate": 20.53,
    "late_elderly_rate": 10.26,
    "latitude": 32.7811031,
    "longitude": 129.8604515,
    "population_reference_date": "2025-12-31"
  },
  {
    "id": 34,
    "town_name": "三重田町",
    "town_code": "3320",
    "households": 88,
    "total_population": 157,
    "population_age_65_and_over": 78,
    "population_age_75_and_over": 42,
    "aging_rate": 49.68,
    "late_elderly_rate": 26.75,
    "latitude": 32.8270016,
    "longitude": 129.7339864,
    "population_reference_date": "2025-12-31"
  },
  {
    "id": 35,
    "town_name": "三重町",
    "town_code": "3310",
    "households": 465,
    "total_population": 874,
    "population_age_65_and_over": 427,
    "population_age_75_and_over": 249,
    "aging_rate": 48.86,
    "late_elderly_rate": 28.49,
    "latitude": 32.8314155,
    "longitude": 129.7443008,
    "population_reference_date": "2025-12-31"
  },
  {
    "id": 36,
    "town_name": "上大野町",
    "town_code": "3690",
    "households": 44,
    "total_population": 58,
    "population_age_65_and_over": 44,
    "population_age_75_and_over": 26,
    "aging_rate": 75.86,
    "late_elderly_rate": 44.83,
    "latitude": 32.8675985,
    "longitude": 129.6829705,
    "population_reference_date": "2025-12-31"
  },
  {
    "id": 37,
    "town_name": "上小島１丁目",
    "town_code": "521",
    "households": 268,
    "total_population": 431,
    "population_age_65_and_over": 190,
    "population_age_75_and_over": 112,
    "aging_rate": 44.08,
    "late_elderly_rate": 25.99,
    "latitude": 32.7372156,
    "longitude": 129.8841453,
    "population_reference_date": "2025-12-31"
  },
  {
    "id": 38,
    "town_name": "上小島３丁目",
    "town_code": "523",
    "households": 401,
    "total_population": 691,
    "population_age_65_and_over": 301,
    "population_age_75_and_over": 183,
    "aging_rate": 43.56,
    "late_elderly_rate": 26.48,
    "latitude": 32.7328668,
    "longitude": 129.8875336,
    "population_reference_date": "2025-12-31"
  },
  {
    "id": 39,
    "town_name": "上小島２丁目",
    "town_code": "522",
    "households": 487,
    "total_population": 661,
    "population_age_65_and_over": 217,
    "population_age_75_and_over": 113,
    "aging_rate": 32.83,
    "late_elderly_rate": 17.1,
    "latitude": 32.7359581,
    "longitude": 129.8863224,
    "population_reference_date": "2025-12-31"
  },
  {
    "id": 40,
    "town_name": "上小島５丁目",
    "town_code": "525",
    "households": 392,
    "total_population": 676,
    "population_age_65_and_over": 297,
    "population_age_75_and_over": 198,
    "aging_rate": 43.93,
    "late_elderly_rate": 29.29,
    "latitude": 32.7290101,
    "longitude": 129.8881215,
    "population_reference_date": "2025-12-31"
  },
  {
    "id": 41,
    "town_name": "上小島４丁目",
    "town_code": "524",
    "households": 477,
    "total_population": 871,
    "population_age_65_and_over": 343,
    "population_age_75_and_over": 200,
    "aging_rate": 39.38,
    "late_elderly_rate": 22.96,
    "latitude": 32.7323935,
    "longitude": 129.8851222,
    "population_reference_date": "2025-12-31"
  },
  {
    "id": 42,
    "town_name": "上戸町",
    "town_code": "4450",
    "households": 40,
    "total_population": 85,
    "population_age_65_and_over": 30,
    "population_age_75_and_over": 18,
    "aging_rate": 35.29,
    "late_elderly_rate": 21.18,
    "latitude": 32.724049,
    "longitude": 129.8705091,
    "population_reference_date": "2025-12-31"
  },
  {
    "id": 43,
    "town_name": "上戸町１丁目",
    "town_code": "4451",
    "households": 352,
    "total_population": 697,
    "population_age_65_and_over": 246,
    "population_age_75_and_over": 138,
    "aging_rate": 35.29,
    "late_elderly_rate": 19.8,
    "latitude": 32.7179711,
    "longitude": 129.868712,
    "population_reference_date": "2025-12-31"
  },
  {
    "id": 44,
    "town_name": "上戸町３丁目",
    "town_code": "4453",
    "households": 264,
    "total_population": 479,
    "population_age_65_and_over": 130,
    "population_age_75_and_over": 71,
    "aging_rate": 27.14,
    "late_elderly_rate": 14.82,
    "latitude": 32.7165114,
    "longitude": 129.8700693,
    "population_reference_date": "2025-12-31"
  },
  {
    "id": 45,
    "town_name": "上戸町２丁目",
    "town_code": "4452",
    "households": 418,
    "total_population": 780,
    "population_age_65_and_over": 328,
    "population_age_75_and_over": 202,
    "aging_rate": 42.05,
    "late_elderly_rate": 25.9,
    "latitude": 32.7157231,
    "longitude": 129.8676781,
    "population_reference_date": "2025-12-31"
  },
  {
    "id": 46,
    "town_name": "上戸町４丁目",
    "town_code": "4454",
    "households": 364,
    "total_population": 602,
    "population_age_65_and_over": 156,
    "population_age_75_and_over": 104,
    "aging_rate": 25.91,
    "late_elderly_rate": 17.28,
    "latitude": 32.7079136,
    "longitude": 129.8831676,
    "population_reference_date": "2025-12-31"
  },
  {
    "id": 47,
    "town_name": "上戸石町",
    "town_code": "1240",
    "households": 554,
    "total_population": 1382,
    "population_age_65_and_over": 333,
    "population_age_75_and_over": 197,
    "aging_rate": 24.1,
    "late_elderly_rate": 14.25,
    "latitude": 32.7784246,
    "longitude": 129.9731973,
    "population_reference_date": "2025-12-31"
  },
  {
    "id": 48,
    "town_name": "上浦町",
    "town_code": "3190",
    "households": 47,
    "total_population": 116,
    "population_age_65_and_over": 47,
    "population_age_75_and_over": 26,
    "aging_rate": 40.52,
    "late_elderly_rate": 22.41,
    "latitude": 32.7880041,
    "longitude": 129.8176787,
    "population_reference_date": "2025-12-31"
  },
  {
    "id": 49,
    "town_name": "上田町",
    "town_code": "4310",
    "households": 214,
    "total_population": 339,
    "population_age_65_and_over": 157,
    "population_age_75_and_over": 91,
    "aging_rate": 46.31,
    "late_elderly_rate": 26.84,
    "latitude": 32.7321211,
    "longitude": 129.8716596,
    "population_reference_date": "2025-12-31"
  },
  {
    "id": 50,
    "town_name": "上町",
    "town_code": "710",
    "households": 305,
    "total_population": 563,
    "population_age_65_and_over": 197,
    "population_age_75_and_over": 121,
    "aging_rate": 34.99,
    "late_elderly_rate": 21.49,
    "latitude": 32.7516039,
    "longitude": 129.8777509,
    "population_reference_date": "2025-12-31"
  },
  {
    "id": 51,
    "town_name": "上西山町",
    "town_code": "770",
    "households": 308,
    "total_population": 560,
    "population_age_65_and_over": 153,
    "population_age_75_and_over": 94,
    "aging_rate": 27.32,
    "late_elderly_rate": 16.79,
    "latitude": 32.7549743,
    "longitude": 129.8819728,
    "population_reference_date": "2025-12-31"
  },
  {
    "id": 52,
    "town_name": "上野町",
    "town_code": "6180",
    "households": 480,
    "total_population": 942,
    "population_age_65_and_over": 269,
    "population_age_75_and_over": 144,
    "aging_rate": 28.56,
    "late_elderly_rate": 15.29,
    "latitude": 32.7788509,
    "longitude": 129.8675478,
    "population_reference_date": "2025-12-31"
  },
  {
    "id": 53,
    "town_name": "上銭座町",
    "town_code": "6045",
    "households": 269,
    "total_population": 409,
    "population_age_65_and_over": 147,
    "population_age_75_and_over": 96,
    "aging_rate": 35.94,
    "late_elderly_rate": 23.47,
    "latitude": 32.7636263,
    "longitude": 129.8694696,
    "population_reference_date": "2025-12-31"
  },
  {
    "id": 54,
    "town_name": "上黒崎町",
    "town_code": "3520",
    "households": 83,
    "total_population": 135,
    "population_age_65_and_over": 79,
    "population_age_75_and_over": 38,
    "aging_rate": 58.52,
    "late_elderly_rate": 28.15,
    "latitude": 32.853554,
    "longitude": 129.7237318,
    "population_reference_date": "2025-12-31"
  },
  {
    "id": 55,
    "town_name": "下大野町",
    "town_code": "3700",
    "households": 54,
    "total_population": 92,
    "population_age_65_and_over": 50,
    "population_age_75_and_over": 30,
    "aging_rate": 54.35,
    "late_elderly_rate": 32.61,
    "latitude": 32.8609659,
    "longitude": 129.6899917,
    "population_reference_date": "2025-12-31"
  },
  {
    "id": 56,
    "town_name": "下町",
    "town_code": "4180",
    "households": 142,
    "total_population": 181,
    "population_age_65_and_over": 93,
    "population_age_75_and_over": 51,
    "aging_rate": 51.38,
    "late_elderly_rate": 28.18,
    "latitude": 32.7342771,
    "longitude": 129.8732925,
    "population_reference_date": "2025-12-31"
  },
  {
    "id": 57,
    "town_name": "下西山町",
    "town_code": "780",
    "households": 222,
    "total_population": 403,
    "population_age_65_and_over": 148,
    "population_age_75_and_over": 82,
    "aging_rate": 36.72,
    "late_elderly_rate": 20.35,
    "latitude": 32.7557987,
    "longitude": 129.8855357,
    "population_reference_date": "2025-12-31"
  },
  {
    "id": 58,
    "town_name": "下黒崎町",
    "town_code": "3530",
    "households": 247,
    "total_population": 424,
    "population_age_65_and_over": 228,
    "population_age_75_and_over": 131,
    "aging_rate": 53.77,
    "late_elderly_rate": 30.9,
    "latitude": 32.8414247,
    "longitude": 129.7107346,
    "population_reference_date": "2025-12-31"
  },
  {
    "id": 59,
    "town_name": "中園町",
    "town_code": "6450",
    "households": 689,
    "total_population": 1163,
    "population_age_65_and_over": 290,
    "population_age_75_and_over": 141,
    "aging_rate": 24.94,
    "late_elderly_rate": 12.12,
    "latitude": 32.7921927,
    "longitude": 129.8588366,
    "population_reference_date": "2025-12-31"
  },
  {
    "id": 60,
    "town_name": "中小島１丁目",
    "town_code": "4051",
    "households": 283,
    "total_population": 426,
    "population_age_65_and_over": 133,
    "population_age_75_and_over": 88,
    "aging_rate": 31.22,
    "late_elderly_rate": 20.66,
    "latitude": 32.7385679,
    "longitude": 129.8809919,
    "population_reference_date": "2025-12-31"
  },
  {
    "id": 61,
    "town_name": "中小島２丁目",
    "town_code": "4052",
    "households": 467,
    "total_population": 765,
    "population_age_65_and_over": 394,
    "population_age_75_and_over": 206,
    "aging_rate": 51.5,
    "late_elderly_rate": 26.93,
    "latitude": 32.7360685,
    "longitude": 129.8813418,
    "population_reference_date": "2025-12-31"
  },
  {
    "id": 62,
    "town_name": "中川１丁目",
    "town_code": "161",
    "households": 255,
    "total_population": 486,
    "population_age_65_and_over": 113,
    "population_age_75_and_over": 68,
    "aging_rate": 23.25,
    "late_elderly_rate": 13.99,
    "latitude": 32.7512653,
    "longitude": 129.8925352,
    "population_reference_date": "2025-12-31"
  },
  {
    "id": 63,
    "town_name": "中川２丁目",
    "town_code": "162",
    "households": 277,
    "total_population": 504,
    "population_age_65_and_over": 189,
    "population_age_75_and_over": 105,
    "aging_rate": 37.5,
    "late_elderly_rate": 20.83,
    "latitude": 32.7519819,
    "longitude": 129.8939386,
    "population_reference_date": "2025-12-31"
  },
  {
    "id": 64,
    "town_name": "中新町",
    "town_code": "4090",
    "households": 371,
    "total_population": 554,
    "population_age_65_and_over": 239,
    "population_age_75_and_over": 152,
    "aging_rate": 43.14,
    "late_elderly_rate": 27.44,
    "latitude": 32.7357719,
    "longitude": 129.8770737,
    "population_reference_date": "2025-12-31"
  },
  {
    "id": 65,
    "town_name": "中町",
    "town_code": "700",
    "households": 305,
    "total_population": 433,
    "population_age_65_and_over": 95,
    "population_age_75_and_over": 50,
    "aging_rate": 21.94,
    "late_elderly_rate": 11.55,
    "latitude": 32.7519625,
    "longitude": 129.8743471,
    "population_reference_date": "2025-12-31"
  },
  {
    "id": 66,
    "town_name": "中里町",
    "town_code": "1220",
    "households": 765,
    "total_population": 1634,
    "population_age_65_and_over": 485,
    "population_age_75_and_over": 254,
    "aging_rate": 29.68,
    "late_elderly_rate": 15.54,
    "latitude": 32.8047028,
    "longitude": 129.9669862,
    "population_reference_date": "2025-12-31"
  },
  {
    "id": 67,
    "town_name": "丸尾町",
    "town_code": "2180",
    "households": 68,
    "total_population": 107,
    "population_age_65_and_over": 37,
    "population_age_75_and_over": 20,
    "aging_rate": 34.58,
    "late_elderly_rate": 18.69,
    "latitude": 32.7476908,
    "longitude": 129.861857,
    "population_reference_date": "2025-12-31"
  },
  {
    "id": 68,
    "town_name": "丸山町",
    "town_code": "4030",
    "households": 506,
    "total_population": 701,
    "population_age_65_and_over": 153,
    "population_age_75_and_over": 96,
    "aging_rate": 21.83,
    "late_elderly_rate": 13.69,
    "latitude": 32.7411853,
    "longitude": 129.8805748,
    "population_reference_date": "2025-12-31"
  },
  {
    "id": 69,
    "town_name": "五島町",
    "town_code": "570",
    "households": 693,
    "total_population": 1115,
    "population_age_65_and_over": 299,
    "population_age_75_and_over": 166,
    "aging_rate": 26.82,
    "late_elderly_rate": 14.89,
    "latitude": 32.7487824,
    "longitude": 129.8730426,
    "population_reference_date": "2025-12-31"
  },
  {
    "id": 70,
    "town_name": "京太郎町",
    "town_code": "5140",
    "households": 17,
    "total_population": 23,
    "population_age_65_and_over": 5,
    "population_age_75_and_over": 3,
    "aging_rate": 21.74,
    "late_elderly_rate": 13.04,
    "latitude": 32.6916894,
    "longitude": 129.8536587,
    "population_reference_date": "2025-12-31"
  },
  {
    "id": 72,
    "town_name": "京泊１丁目",
    "town_code": "3361",
    "households": 371,
    "total_population": 779,
    "population_age_65_and_over": 359,
    "population_age_75_and_over": 160,
    "aging_rate": 46.08,
    "late_elderly_rate": 20.54,
    "latitude": 32.8283422,
    "longitude": 129.773984,
    "population_reference_date": "2025-12-31"
  },
  {
    "id": 73,
    "town_name": "京泊３丁目",
    "town_code": "3363",
    "households": 373,
    "total_population": 643,
    "population_age_65_and_over": 242,
    "population_age_75_and_over": 123,
    "aging_rate": 37.64,
    "late_elderly_rate": 19.13,
    "latitude": 32.8211943,
    "longitude": 129.7688562,
    "population_reference_date": "2025-12-31"
  },
  {
    "id": 74,
    "town_name": "京泊２丁目",
    "town_code": "3362",
    "households": 478,
    "total_population": 828,
    "population_age_65_and_over": 315,
    "population_age_75_and_over": 149,
    "aging_rate": 38.04,
    "late_elderly_rate": 18.0,
    "latitude": 32.8222646,
    "longitude": 129.7745001,
    "population_reference_date": "2025-12-31"
  },
  {
    "id": 75,
    "town_name": "今博多町",
    "town_code": "320",
    "households": 161,
    "total_population": 245,
    "population_age_65_and_over": 67,
    "population_age_75_and_over": 46,
    "aging_rate": 27.35,
    "late_elderly_rate": 18.78,
    "latitude": 32.750621,
    "longitude": 129.8820764,
    "population_reference_date": "2025-12-31"
  },
  {
    "id": 76,
    "town_name": "以下宿町",
    "town_code": "5730",
    "households": 63,
    "total_population": 100,
    "population_age_65_and_over": 56,
    "population_age_75_and_over": 34,
    "aging_rate": 56.0,
    "late_elderly_rate": 34.0,
    "latitude": 32.6170346,
    "longitude": 129.7991412,
    "population_reference_date": "2025-12-31"
  },
  {
    "id": 77,
    "town_name": "伊勢町",
    "town_code": "200",
    "households": 176,
    "total_population": 348,
    "population_age_65_and_over": 102,
    "population_age_75_and_over": 60,
    "aging_rate": 29.31,
    "late_elderly_rate": 17.24,
    "latitude": 32.7519948,
    "longitude": 129.8855437,
    "population_reference_date": "2025-12-31"
  },
  {
    "id": 79,
    "town_name": "伊良林１丁目",
    "town_code": "211",
    "households": 223,
    "total_population": 406,
    "population_age_65_and_over": 163,
    "population_age_75_and_over": 102,
    "aging_rate": 40.15,
    "late_elderly_rate": 25.12,
    "latitude": 32.7509222,
    "longitude": 129.8869299,
    "population_reference_date": "2025-12-31"
  },
  {
    "id": 80,
    "town_name": "伊良林３丁目",
    "town_code": "213",
    "households": 284,
    "total_population": 545,
    "population_age_65_and_over": 206,
    "population_age_75_and_over": 118,
    "aging_rate": 37.8,
    "late_elderly_rate": 21.65,
    "latitude": 32.7461285,
    "longitude": 129.887642,
    "population_reference_date": "2025-12-31"
  },
  {
    "id": 81,
    "town_name": "伊良林２丁目",
    "town_code": "212",
    "households": 225,
    "total_population": 408,
    "population_age_65_and_over": 160,
    "population_age_75_and_over": 98,
    "aging_rate": 39.22,
    "late_elderly_rate": 24.02,
    "latitude": 32.7489522,
    "longitude": 129.8880559,
    "population_reference_date": "2025-12-31"
  },
  {
    "id": 82,
    "town_name": "住吉台町",
    "town_code": "6465",
    "households": 173,
    "total_population": 330,
    "population_age_65_and_over": 128,
    "population_age_75_and_over": 61,
    "aging_rate": 38.79,
    "late_elderly_rate": 18.48,
    "latitude": 32.795665,
    "longitude": 129.8590896,
    "population_reference_date": "2025-12-31"
  },
  {
    "id": 83,
    "town_name": "住吉町",
    "town_code": "6460",
    "households": 832,
    "total_population": 1388,
    "population_age_65_and_over": 479,
    "population_age_75_and_over": 280,
    "aging_rate": 34.51,
    "late_elderly_rate": 20.17,
    "latitude": 32.7929378,
    "longitude": 129.8604412,
    "population_reference_date": "2025-12-31"
  },
  {
    "id": 84,
    "town_name": "元町",
    "town_code": "4220",
    "households": 130,
    "total_population": 209,
    "population_age_65_and_over": 122,
    "population_age_75_and_over": 84,
    "aging_rate": 58.37,
    "late_elderly_rate": 40.19,
    "latitude": 32.7335663,
    "longitude": 129.8768439,
    "population_reference_date": "2025-12-31"
  },
  {
    "id": 85,
    "town_name": "元船町",
    "town_code": "560",
    "households": 360,
    "total_population": 627,
    "population_age_65_and_over": 145,
    "population_age_75_and_over": 59,
    "aging_rate": 23.13,
    "late_elderly_rate": 9.41,
    "latitude": 32.7472406,
    "longitude": 129.8699263,
    "population_reference_date": "2025-12-31"
  },
  {
    "id": 86,
    "town_name": "光町",
    "town_code": "2100",
    "households": 189,
    "total_population": 339,
    "population_age_65_and_over": 130,
    "population_age_75_and_over": 82,
    "aging_rate": 38.35,
    "late_elderly_rate": 24.19,
    "latitude": 32.755186,
    "longitude": 129.8639343,
    "population_reference_date": "2025-12-31"
  },
  {
    "id": 87,
    "town_name": "入船町",
    "town_code": "2230",
    "households": 429,
    "total_population": 761,
    "population_age_65_and_over": 373,
    "population_age_75_and_over": 208,
    "aging_rate": 49.01,
    "late_elderly_rate": 27.33,
    "latitude": 32.7448484,
    "longitude": 129.845867,
    "population_reference_date": "2025-12-31"
  },
  {
    "id": 88,
    "town_name": "八つ尾町",
    "town_code": "150",
    "households": 586,
    "total_population": 1095,
    "population_age_65_and_over": 471,
    "population_age_75_and_over": 293,
    "aging_rate": 43.01,
    "late_elderly_rate": 26.76,
    "latitude": 32.735708,
    "longitude": 129.8974239,
    "population_reference_date": "2025-12-31"
  },
  {
    "id": 89,
    "town_name": "八千代町",
    "town_code": "660",
    "households": 43,
    "total_population": 59,
    "population_age_65_and_over": 5,
    "population_age_75_and_over": 3,
    "aging_rate": 8.47,
    "late_elderly_rate": 5.08,
    "latitude": 32.7556297,
    "longitude": 129.8696331,
    "population_reference_date": "2025-12-31"
  },
  {
    "id": 90,
    "town_name": "八幡町",
    "town_code": "250",
    "households": 499,
    "total_population": 821,
    "population_age_65_and_over": 296,
    "population_age_75_and_over": 169,
    "aging_rate": 36.05,
    "late_elderly_rate": 20.58,
    "latitude": 32.750431,
    "longitude": 129.8842615,
    "population_reference_date": "2025-12-31"
  },
  {
    "id": 91,
    "town_name": "八景町",
    "town_code": "4280",
    "households": 377,
    "total_population": 669,
    "population_age_65_and_over": 264,
    "population_age_75_and_over": 150,
    "aging_rate": 39.46,
    "late_elderly_rate": 22.42,
    "latitude": 32.7262426,
    "longitude": 129.8838039,
    "population_reference_date": "2025-12-31"
  },
  {
    "id": 92,
    "town_name": "八百屋町",
    "town_code": "740",
    "households": 51,
    "total_population": 122,
    "population_age_65_and_over": 30,
    "population_age_75_and_over": 12,
    "aging_rate": 24.59,
    "late_elderly_rate": 9.84,
    "latitude": 32.7516797,
    "longitude": 129.8802279,
    "population_reference_date": "2025-12-31"
  },
  {
    "id": 93,
    "town_name": "八郎岳町",
    "town_code": "5230",
    "households": 0,
    "total_population": 0,
    "population_age_65_and_over": 0,
    "population_age_75_and_over": 0,
    "aging_rate": 0.0,
    "late_elderly_rate": 0.0,
    "latitude": 32.6787645,
    "longitude": 129.8535672,
    "population_reference_date": "2025-12-31"
  },
  {
    "id": 94,
    "town_name": "出島町",
    "town_code": "540",
    "households": 480,
    "total_population": 808,
    "population_age_65_and_over": 195,
    "population_age_75_and_over": 106,
    "aging_rate": 24.13,
    "late_elderly_rate": 13.12,
    "latitude": 32.7428518,
    "longitude": 129.8725509,
    "population_reference_date": "2025-12-31"
  },
  {
    "id": 95,
    "town_name": "出来大工町",
    "town_code": "270",
    "households": 300,
    "total_population": 450,
    "population_age_65_and_over": 118,
    "population_age_75_and_over": 64,
    "aging_rate": 26.22,
    "late_elderly_rate": 14.22,
    "latitude": 32.7517532,
    "longitude": 129.8831582,
    "population_reference_date": "2025-12-31"
  },
  {
    "id": 96,
    "town_name": "出雲１丁目",
    "town_code": "4301",
    "households": 407,
    "total_population": 691,
    "population_age_65_and_over": 251,
    "population_age_75_and_over": 143,
    "aging_rate": 36.32,
    "late_elderly_rate": 20.69,
    "latitude": 32.728772,
    "longitude": 129.8733555,
    "population_reference_date": "2025-12-31"
  },
  {
    "id": 97,
    "town_name": "出雲３丁目",
    "town_code": "4303",
    "households": 160,
    "total_population": 307,
    "population_age_65_and_over": 135,
    "population_age_75_and_over": 81,
    "aging_rate": 43.97,
    "late_elderly_rate": 26.38,
    "latitude": 32.7243816,
    "longitude": 129.8738021,
    "population_reference_date": "2025-12-31"
  },
  {
    "id": 98,
    "town_name": "出雲２丁目",
    "town_code": "4302",
    "households": 209,
    "total_population": 361,
    "population_age_65_and_over": 163,
    "population_age_75_and_over": 109,
    "aging_rate": 45.15,
    "late_elderly_rate": 30.19,
    "latitude": 32.7285517,
    "longitude": 129.869911,
    "population_reference_date": "2025-12-31"
  },
  {
    "id": 99,
    "town_name": "勝山町",
    "town_code": "300",
    "households": 320,
    "total_population": 513,
    "population_age_65_and_over": 99,
    "population_age_75_and_over": 54,
    "aging_rate": 19.3,
    "late_elderly_rate": 10.53,
    "latitude": 32.7509719,
    "longitude": 129.8797148,
    "population_reference_date": "2025-12-31"
  },
  {
    "id": 100,
    "town_name": "北栄町",
    "town_code": "6670",
    "households": 518,
    "total_population": 1090,
    "population_age_65_and_over": 393,
    "population_age_75_and_over": 238,
    "aging_rate": 36.06,
    "late_elderly_rate": 21.83,
    "latitude": 32.800248,
    "longitude": 129.8279511,
    "population_reference_date": "2025-12-31"
  },
  {
    "id": 101,
    "town_name": "北浦町",
    "town_code": "5640",
    "households": 408,
    "total_population": 783,
    "population_age_65_and_over": 332,
    "population_age_75_and_over": 194,
    "aging_rate": 42.4,
    "late_elderly_rate": 24.78,
    "latitude": 32.7179787,
    "longitude": 129.9136909,
    "population_reference_date": "2025-12-31"
  },
  {
    "id": 102,
    "town_name": "北陽町",
    "town_code": "6680",
    "households": 562,
    "total_population": 1116,
    "population_age_65_and_over": 441,
    "population_age_75_and_over": 295,
    "aging_rate": 39.52,
    "late_elderly_rate": 26.43,
    "latitude": 32.811332,
    "longitude": 129.8238728,
    "population_reference_date": "2025-12-31"
  },
  {
    "id": 103,
    "town_name": "十人町",
    "town_code": "4100",
    "households": 437,
    "total_population": 571,
    "population_age_65_and_over": 217,
    "population_age_75_and_over": 121,
    "aging_rate": 38.0,
    "late_elderly_rate": 21.19,
    "latitude": 32.7387762,
    "longitude": 129.8751943,
    "population_reference_date": "2025-12-31"
  },
  {
    "id": 104,
    "town_name": "千々町",
    "town_code": "5690",
    "households": 119,
    "total_population": 220,
    "population_age_65_and_over": 124,
    "population_age_75_and_over": 79,
    "aging_rate": 56.36,
    "late_elderly_rate": 35.91,
    "latitude": 32.6623669,
    "longitude": 129.8704107,
    "population_reference_date": "2025-12-31"
  },
  {
    "id": 105,
    "town_name": "千歳町",
    "town_code": "6430",
    "households": 991,
    "total_population": 1598,
    "population_age_65_and_over": 566,
    "population_age_75_and_over": 324,
    "aging_rate": 35.42,
    "late_elderly_rate": 20.28,
    "latitude": 32.789768,
    "longitude": 129.8622652,
    "population_reference_date": "2025-12-31"
  },
  {
    "id": 106,
    "town_name": "南が丘町",
    "town_code": "4270",
    "households": 270,
    "total_population": 548,
    "population_age_65_and_over": 196,
    "population_age_75_and_over": 112,
    "aging_rate": 35.77,
    "late_elderly_rate": 20.44,
    "latitude": 32.7277967,
    "longitude": 129.8856482,
    "population_reference_date": "2025-12-31"
  },
  {
    "id": 107,
    "town_name": "南山手町",
    "town_code": "4320",
    "households": 267,
    "total_population": 413,
    "population_age_65_and_over": 127,
    "population_age_75_and_over": 82,
    "aging_rate": 30.75,
    "late_elderly_rate": 19.85,
    "latitude": 32.7330941,
    "longitude": 129.8688932,
    "population_reference_date": "2025-12-31"
  },
  {
    "id": 108,
    "town_name": "南町",
    "town_code": "4260",
    "households": 215,
    "total_population": 381,
    "population_age_65_and_over": 136,
    "population_age_75_and_over": 74,
    "aging_rate": 35.7,
    "late_elderly_rate": 19.42,
    "latitude": 32.729557,
    "longitude": 129.8825513,
    "population_reference_date": "2025-12-31"
  },
  {
    "id": 109,
    "town_name": "南越町",
    "town_code": "5770",
    "households": 87,
    "total_population": 141,
    "population_age_65_and_over": 81,
    "population_age_75_and_over": 43,
    "aging_rate": 57.45,
    "late_elderly_rate": 30.5,
    "latitude": 32.5916109,
    "longitude": 129.7683625,
    "population_reference_date": "2025-12-31"
  },
  {
    "id": 110,
    "town_name": "古川町",
    "town_code": "380",
    "households": 198,
    "total_population": 351,
    "population_age_65_and_over": 115,
    "population_age_75_and_over": 72,
    "aging_rate": 32.76,
    "late_elderly_rate": 20.51,
    "latitude": 32.7458713,
    "longitude": 129.8817694,
    "population_reference_date": "2025-12-31"
  },
  {
    "id": 111,
    "town_name": "古河町",
    "town_code": "4360",
    "households": 46,
    "total_population": 78,
    "population_age_65_and_over": 30,
    "population_age_75_and_over": 19,
    "aging_rate": 38.46,
    "late_elderly_rate": 24.36,
    "latitude": 32.7299334,
    "longitude": 129.8629865,
    "population_reference_date": "2025-12-31"
  },
  {
    "id": 112,
    "town_name": "古町",
    "town_code": "330",
    "households": 232,
    "total_population": 329,
    "population_age_65_and_over": 68,
    "population_age_75_and_over": 41,
    "aging_rate": 20.67,
    "late_elderly_rate": 12.46,
    "latitude": 32.7501283,
    "longitude": 129.8816807,
    "population_reference_date": "2025-12-31"
  },
  {
    "id": 113,
    "town_name": "古賀町",
    "town_code": "1200",
    "households": 662,
    "total_population": 1360,
    "population_age_65_and_over": 438,
    "population_age_75_and_over": 253,
    "aging_rate": 32.21,
    "late_elderly_rate": 18.6,
    "latitude": 32.8049443,
    "longitude": 129.957418,
    "population_reference_date": "2025-12-31"
  },
  {
    "id": 114,
    "town_name": "古道町",
    "town_code": "5120",
    "households": 30,
    "total_population": 50,
    "population_age_65_and_over": 20,
    "population_age_75_and_over": 14,
    "aging_rate": 40.0,
    "late_elderly_rate": 28.0,
    "latitude": 32.6969115,
    "longitude": 129.8570164,
    "population_reference_date": "2025-12-31"
  },
  {
    "id": 115,
    "town_name": "向町",
    "town_code": "3220",
    "households": 371,
    "total_population": 669,
    "population_age_65_and_over": 361,
    "population_age_75_and_over": 203,
    "aging_rate": 53.96,
    "late_elderly_rate": 30.34,
    "latitude": 32.7854006,
    "longitude": 129.7961056,
    "population_reference_date": "2025-12-31"
  },
  {
    "id": 116,
    "town_name": "四杖町",
    "town_code": "3250",
    "households": 293,
    "total_population": 525,
    "population_age_65_and_over": 321,
    "population_age_75_and_over": 175,
    "aging_rate": 61.14,
    "late_elderly_rate": 33.33,
    "latitude": 32.7978909,
    "longitude": 129.7911094,
    "population_reference_date": "2025-12-31"
  },
  {
    "id": 117,
    "town_name": "国分町",
    "town_code": "4390",
    "households": 137,
    "total_population": 258,
    "population_age_65_and_over": 108,
    "population_age_75_and_over": 67,
    "aging_rate": 41.86,
    "late_elderly_rate": 25.97,
    "latitude": 32.7259772,
    "longitude": 129.8589289,
    "population_reference_date": "2025-12-31"
  },
  {
    "id": 118,
    "town_name": "園田町",
    "town_code": "3210",
    "households": 80,
    "total_population": 160,
    "population_age_65_and_over": 73,
    "population_age_75_and_over": 28,
    "aging_rate": 45.62,
    "late_elderly_rate": 17.5,
    "latitude": 32.7964753,
    "longitude": 129.8117161,
    "population_reference_date": "2025-12-31"
  },
  {
    "id": 119,
    "town_name": "土井首町",
    "town_code": "5160",
    "households": 288,
    "total_population": 559,
    "population_age_65_and_over": 214,
    "population_age_75_and_over": 108,
    "aging_rate": 38.28,
    "late_elderly_rate": 19.32,
    "latitude": 32.6960474,
    "longitude": 129.8384298,
    "population_reference_date": "2025-12-31"
  },
  {
    "id": 120,
    "town_name": "坂本１丁目",
    "town_code": "6131",
    "households": 589,
    "total_population": 844,
    "population_age_65_and_over": 218,
    "population_age_75_and_over": 119,
    "aging_rate": 25.83,
    "late_elderly_rate": 14.1,
    "latitude": 32.7701891,
    "longitude": 129.8685661,
    "population_reference_date": "2025-12-31"
  },
  {
    "id": 121,
    "town_name": "坂本３丁目",
    "town_code": "6133",
    "households": 246,
    "total_population": 419,
    "population_age_65_and_over": 149,
    "population_age_75_and_over": 74,
    "aging_rate": 35.56,
    "late_elderly_rate": 17.66,
    "latitude": 32.7698211,
    "longitude": 129.8715626,
    "population_reference_date": "2025-12-31"
  },
  {
    "id": 122,
    "town_name": "坂本２丁目",
    "town_code": "6132",
    "households": 431,
    "total_population": 660,
    "population_age_65_and_over": 281,
    "population_age_75_and_over": 140,
    "aging_rate": 42.58,
    "late_elderly_rate": 21.21,
    "latitude": 32.7663384,
    "longitude": 129.8719412,
    "population_reference_date": "2025-12-31"
  },
  {
    "id": 124,
    "town_name": "城山台１丁目",
    "town_code": "6951",
    "households": 747,
    "total_population": 1588,
    "population_age_65_and_over": 674,
    "population_age_75_and_over": 356,
    "aging_rate": 42.44,
    "late_elderly_rate": 22.42,
    "latitude": 32.7704137,
    "longitude": 129.8429812,
    "population_reference_date": "2025-12-31"
  },
  {
    "id": 125,
    "town_name": "城山台２丁目",
    "town_code": "6952",
    "households": 459,
    "total_population": 968,
    "population_age_65_and_over": 457,
    "population_age_75_and_over": 270,
    "aging_rate": 47.21,
    "late_elderly_rate": 27.89,
    "latitude": 32.7726699,
    "longitude": 129.8387317,
    "population_reference_date": "2025-12-31"
  },
  {
    "id": 126,
    "town_name": "城山町",
    "town_code": "6990",
    "households": 759,
    "total_population": 1627,
    "population_age_65_and_over": 485,
    "population_age_75_and_over": 271,
    "aging_rate": 29.81,
    "late_elderly_rate": 16.66,
    "latitude": 32.772571,
    "longitude": 129.8579823,
    "population_reference_date": "2025-12-31"
  },
  {
    "id": 127,
    "town_name": "城栄町",
    "town_code": "6900",
    "households": 889,
    "total_population": 1765,
    "population_age_65_and_over": 541,
    "population_age_75_and_over": 310,
    "aging_rate": 30.65,
    "late_elderly_rate": 17.56,
    "latitude": 32.7765733,
    "longitude": 129.8560118,
    "population_reference_date": "2025-12-31"
  },
  {
    "id": 128,
    "town_name": "塩浜町",
    "town_code": "2240",
    "households": 93,
    "total_population": 150,
    "population_age_65_and_over": 85,
    "population_age_75_and_over": 50,
    "aging_rate": 56.67,
    "late_elderly_rate": 33.33,
    "latitude": 32.7407928,
    "longitude": 129.8503877,
    "population_reference_date": "2025-12-31"
  },
  {
    "id": 129,
    "town_name": "多以良町",
    "town_code": "3390",
    "households": 590,
    "total_population": 1089,
    "population_age_65_and_over": 348,
    "population_age_75_and_over": 176,
    "aging_rate": 31.96,
    "late_elderly_rate": 16.16,
    "latitude": 32.8173933,
    "longitude": 129.7846575,
    "population_reference_date": "2025-12-31"
  },
  {
    "id": 130,
    "town_name": "大井手町",
    "town_code": "310",
    "households": 157,
    "total_population": 238,
    "population_age_65_and_over": 47,
    "population_age_75_and_over": 30,
    "aging_rate": 19.75,
    "late_elderly_rate": 12.61,
    "latitude": 32.7511662,
    "longitude": 129.882438,
    "population_reference_date": "2025-12-31"
  },
  {
    "id": 131,
    "town_name": "大園町",
    "town_code": "6650",
    "households": 1230,
    "total_population": 2471,
    "population_age_65_and_over": 977,
    "population_age_75_and_over": 525,
    "aging_rate": 39.54,
    "late_elderly_rate": 21.25,
    "latitude": 32.8042243,
    "longitude": 129.8392561,
    "population_reference_date": "2025-12-31"
  },
  {
    "id": 132,
    "town_name": "大宮町",
    "town_code": "6660",
    "households": 383,
    "total_population": 817,
    "population_age_65_and_over": 304,
    "population_age_75_and_over": 185,
    "aging_rate": 37.21,
    "late_elderly_rate": 22.64,
    "latitude": 32.7976277,
    "longitude": 129.8336721,
    "population_reference_date": "2025-12-31"
  },
  {
    "id": 133,
    "town_name": "大山町",
    "town_code": "5040",
    "households": 81,
    "total_population": 158,
    "population_age_65_and_over": 62,
    "population_age_75_and_over": 32,
    "aging_rate": 39.24,
    "late_elderly_rate": 20.25,
    "latitude": 32.6971257,
    "longitude": 129.8749559,
    "population_reference_date": "2025-12-31"
  },
  {
    "id": 134,
    "town_name": "大崎町",
    "town_code": "5680",
    "households": 114,
    "total_population": 207,
    "population_age_65_and_over": 118,
    "population_age_75_and_over": 72,
    "aging_rate": 57.0,
    "late_elderly_rate": 34.78,
    "latitude": 32.6708208,
    "longitude": 129.8883579,
    "population_reference_date": "2025-12-31"
  },
  {
    "id": 135,
    "town_name": "大手１丁目",
    "town_code": "6551",
    "households": 571,
    "total_population": 999,
    "population_age_65_and_over": 375,
    "population_age_75_and_over": 223,
    "aging_rate": 37.54,
    "late_elderly_rate": 22.32,
    "latitude": 32.7905434,
    "longitude": 129.8739227,
    "population_reference_date": "2025-12-31"
  },
  {
    "id": 136,
    "town_name": "大手３丁目",
    "town_code": "6553",
    "households": 273,
    "total_population": 454,
    "population_age_65_and_over": 192,
    "population_age_75_and_over": 105,
    "aging_rate": 42.29,
    "late_elderly_rate": 23.13,
    "latitude": 32.7920137,
    "longitude": 129.8771642,
    "population_reference_date": "2025-12-31"
  },
  {
    "id": 137,
    "town_name": "大手２丁目",
    "town_code": "6552",
    "households": 678,
    "total_population": 1208,
    "population_age_65_and_over": 540,
    "population_age_75_and_over": 331,
    "aging_rate": 44.7,
    "late_elderly_rate": 27.4,
    "latitude": 32.7891184,
    "longitude": 129.8782179,
    "population_reference_date": "2025-12-31"
  },
  {
    "id": 138,
    "town_name": "大橋町",
    "town_code": "6350",
    "households": 1025,
    "total_population": 1590,
    "population_age_65_and_over": 512,
    "population_age_75_and_over": 290,
    "aging_rate": 32.2,
    "late_elderly_rate": 18.24,
    "latitude": 32.7816721,
    "longitude": 129.8625908,
    "population_reference_date": "2025-12-31"
  },
  {
    "id": 139,
    "town_name": "大浜町",
    "town_code": "3110",
    "households": 1931,
    "total_population": 3894,
    "population_age_65_and_over": 1445,
    "population_age_75_and_over": 815,
    "aging_rate": 37.11,
    "late_elderly_rate": 20.93,
    "latitude": 32.7499907,
    "longitude": 129.8384179,
    "population_reference_date": "2025-12-31"
  },
  {
    "id": 140,
    "town_name": "大浦東町",
    "town_code": "4200",
    "households": 129,
    "total_population": 203,
    "population_age_65_and_over": 66,
    "population_age_75_and_over": 45,
    "aging_rate": 32.51,
    "late_elderly_rate": 22.17,
    "latitude": 32.7326667,
    "longitude": 129.8734563,
    "population_reference_date": "2025-12-31"
  },
  {
    "id": 141,
    "town_name": "大浦町",
    "town_code": "4160",
    "households": 938,
    "total_population": 1731,
    "population_age_65_and_over": 497,
    "population_age_75_and_over": 271,
    "aging_rate": 28.71,
    "late_elderly_rate": 15.66,
    "latitude": 32.736551,
    "longitude": 129.8717433,
    "population_reference_date": "2025-12-31"
  },
  {
    "id": 142,
    "town_name": "大籠町",
    "town_code": "5340",
    "households": 51,
    "total_population": 101,
    "population_age_65_and_over": 56,
    "population_age_75_and_over": 26,
    "aging_rate": 55.45,
    "late_elderly_rate": 25.74,
    "latitude": 32.6721391,
    "longitude": 129.8224813,
    "population_reference_date": "2025-12-31"
  },
  {
    "id": 143,
    "town_name": "大谷町",
    "town_code": "2200",
    "households": 282,
    "total_population": 427,
    "population_age_65_and_over": 253,
    "population_age_75_and_over": 165,
    "aging_rate": 59.25,
    "late_elderly_rate": 38.64,
    "latitude": 32.748087,
    "longitude": 129.8524878,
    "population_reference_date": "2025-12-31"
  },
  {
    "id": 144,
    "town_name": "大鳥町",
    "town_code": "2170",
    "households": 406,
    "total_population": 651,
    "population_age_65_and_over": 333,
    "population_age_75_and_over": 226,
    "aging_rate": 51.15,
    "late_elderly_rate": 34.72,
    "latitude": 32.7485227,
    "longitude": 129.8583161,
    "population_reference_date": "2025-12-31"
  },
  {
    "id": 145,
    "town_name": "大黒町",
    "town_code": "640",
    "households": 204,
    "total_population": 273,
    "population_age_65_and_over": 82,
    "population_age_75_and_over": 52,
    "aging_rate": 30.04,
    "late_elderly_rate": 19.05,
    "latitude": 32.7521836,
    "longitude": 129.8725557,
    "population_reference_date": "2025-12-31"
  },
  {
    "id": 146,
    "town_name": "天神町",
    "town_code": "6030",
    "households": 331,
    "total_population": 470,
    "population_age_65_and_over": 202,
    "population_age_75_and_over": 112,
    "aging_rate": 42.98,
    "late_elderly_rate": 23.83,
    "latitude": 32.7592558,
    "longitude": 129.8694282,
    "population_reference_date": "2025-12-31"
  },
  {
    "id": 147,
    "town_name": "太田尾町",
    "town_code": "5620",
    "households": 153,
    "total_population": 316,
    "population_age_65_and_over": 145,
    "population_age_75_and_over": 75,
    "aging_rate": 45.89,
    "late_elderly_rate": 23.73,
    "latitude": 32.7354072,
    "longitude": 129.9368807,
    "population_reference_date": "2025-12-31"
  },
  {
    "id": 148,
    "town_name": "夫婦川町",
    "town_code": "830",
    "households": 303,
    "total_population": 521,
    "population_age_65_and_over": 199,
    "population_age_75_and_over": 118,
    "aging_rate": 38.2,
    "late_elderly_rate": 22.65,
    "latitude": 32.7548535,
    "longitude": 129.8896336,
    "population_reference_date": "2025-12-31"
  },
  {
    "id": 150,
    "town_name": "女の都３丁目",
    "town_code": "6533",
    "households": 476,
    "total_population": 897,
    "population_age_65_and_over": 381,
    "population_age_75_and_over": 277,
    "aging_rate": 42.47,
    "late_elderly_rate": 30.88,
    "latitude": 32.8062867,
    "longitude": 129.8799077,
    "population_reference_date": "2025-12-31"
  },
  {
    "id": 151,
    "town_name": "女の都２丁目",
    "town_code": "6532",
    "households": 587,
    "total_population": 1207,
    "population_age_65_and_over": 461,
    "population_age_75_and_over": 281,
    "aging_rate": 38.19,
    "late_elderly_rate": 23.28,
    "latitude": 32.8022808,
    "longitude": 129.8801331,
    "population_reference_date": "2025-12-31"
  },
  {
    "id": 152,
    "town_name": "女の都４丁目",
    "town_code": "6534",
    "households": 660,
    "total_population": 1303,
    "population_age_65_and_over": 534,
    "population_age_75_and_over": 334,
    "aging_rate": 40.98,
    "late_elderly_rate": 25.63,
    "latitude": 32.802905,
    "longitude": 129.8754185,
    "population_reference_date": "2025-12-31"
  },
  {
    "id": 153,
    "town_name": "宝栄町",
    "town_code": "2010",
    "households": 491,
    "total_population": 917,
    "population_age_65_and_over": 240,
    "population_age_75_and_over": 159,
    "aging_rate": 26.17,
    "late_elderly_rate": 17.34,
    "latitude": 32.7696369,
    "longitude": 129.8600336,
    "population_reference_date": "2025-12-31"
  },
  {
    "id": 154,
    "town_name": "宝町",
    "town_code": "6010",
    "households": 435,
    "total_population": 643,
    "population_age_65_and_over": 125,
    "population_age_75_and_over": 57,
    "aging_rate": 19.44,
    "late_elderly_rate": 8.86,
    "latitude": 32.7589302,
    "longitude": 129.867453,
    "population_reference_date": "2025-12-31"
  },
  {
    "id": 155,
    "town_name": "宮崎町",
    "town_code": "5870",
    "households": 343,
    "total_population": 644,
    "population_age_65_and_over": 301,
    "population_age_75_and_over": 172,
    "aging_rate": 46.74,
    "late_elderly_rate": 26.71,
    "latitude": 32.6177228,
    "longitude": 129.8200764,
    "population_reference_date": "2025-12-31"
  },
  {
    "id": 156,
    "town_name": "宮摺町",
    "town_code": "5670",
    "households": 83,
    "total_population": 139,
    "population_age_65_and_over": 75,
    "population_age_75_and_over": 44,
    "aging_rate": 53.96,
    "late_elderly_rate": 31.65,
    "latitude": 32.6848245,
    "longitude": 129.8931636,
    "population_reference_date": "2025-12-31"
  },
  {
    "id": 157,
    "town_name": "家野町",
    "town_code": "6410",
    "households": 691,
    "total_population": 1153,
    "population_age_65_and_over": 348,
    "population_age_75_and_over": 166,
    "aging_rate": 30.18,
    "late_elderly_rate": 14.4,
    "latitude": 32.7881403,
    "longitude": 129.8625002,
    "population_reference_date": "2025-12-31"
  },
  {
    "id": 158,
    "town_name": "宿町",
    "town_code": "1020",
    "households": 1522,
    "total_population": 2480,
    "population_age_65_and_over": 1051,
    "population_age_75_and_over": 614,
    "aging_rate": 42.38,
    "late_elderly_rate": 24.76,
    "latitude": 32.7630508,
    "longitude": 129.9352868,
    "population_reference_date": "2025-12-31"
  },
  {
    "id": 159,
    "town_name": "寄合町",
    "town_code": "4040",
    "households": 431,
    "total_population": 640,
    "population_age_65_and_over": 175,
    "population_age_75_and_over": 81,
    "aging_rate": 27.34,
    "late_elderly_rate": 12.66,
    "latitude": 32.7399559,
    "longitude": 129.8796575,
    "population_reference_date": "2025-12-31"
  },
  {
    "id": 160,
    "town_name": "富士見町",
    "town_code": "6980",
    "households": 772,
    "total_population": 1500,
    "population_age_65_and_over": 406,
    "population_age_75_and_over": 224,
    "aging_rate": 27.07,
    "late_elderly_rate": 14.93,
    "latitude": 32.772314,
    "longitude": 129.8544061,
    "population_reference_date": "2025-12-31"
  },
  {
    "id": 161,
    "town_name": "寺町",
    "town_code": "240",
    "households": 36,
    "total_population": 57,
    "population_age_65_and_over": 21,
    "population_age_75_and_over": 15,
    "aging_rate": 36.84,
    "late_elderly_rate": 26.32,
    "latitude": 32.7473334,
    "longitude": 129.884198,
    "population_reference_date": "2025-12-31"
  },
  {
    "id": 162,
    "town_name": "小ケ倉町１丁目",
    "town_code": "5011",
    "households": 215,
    "total_population": 390,
    "population_age_65_and_over": 171,
    "population_age_75_and_over": 101,
    "aging_rate": 43.85,
    "late_elderly_rate": 25.9,
    "latitude": 32.7094099,
    "longitude": 129.8528892,
    "population_reference_date": "2025-12-31"
  },
  {
    "id": 163,
    "town_name": "小ケ倉町３丁目",
    "town_code": "5013",
    "households": 249,
    "total_population": 466,
    "population_age_65_and_over": 186,
    "population_age_75_and_over": 108,
    "aging_rate": 39.91,
    "late_elderly_rate": 23.18,
    "latitude": 32.7026396,
    "longitude": 129.8485619,
    "population_reference_date": "2025-12-31"
  },
  {
    "id": 164,
    "town_name": "小ケ倉町２丁目",
    "town_code": "5012",
    "households": 778,
    "total_population": 1759,
    "population_age_65_and_over": 404,
    "population_age_75_and_over": 200,
    "aging_rate": 22.97,
    "late_elderly_rate": 11.37,
    "latitude": 32.7053287,
    "longitude": 129.8538094,
    "population_reference_date": "2025-12-31"
  },
  {
    "id": 165,
    "town_name": "小峰町",
    "town_code": "6250",
    "households": 941,
    "total_population": 1767,
    "population_age_65_and_over": 639,
    "population_age_75_and_over": 383,
    "aging_rate": 36.16,
    "late_elderly_rate": 21.68,
    "latitude": 32.7818132,
    "longitude": 129.8728191,
    "population_reference_date": "2025-12-31"
  },
  {
    "id": 166,
    "town_name": "小曽根町",
    "town_code": "4340",
    "households": 42,
    "total_population": 72,
    "population_age_65_and_over": 30,
    "population_age_75_and_over": 20,
    "aging_rate": 41.67,
    "late_elderly_rate": 27.78,
    "latitude": 32.7340677,
    "longitude": 129.8666194,
    "population_reference_date": "2025-12-31"
  },
  {
    "id": 167,
    "town_name": "小江原１丁目",
    "town_code": "3161",
    "households": 657,
    "total_population": 1300,
    "population_age_65_and_over": 524,
    "population_age_75_and_over": 335,
    "aging_rate": 40.31,
    "late_elderly_rate": 25.77,
    "latitude": 32.7864753,
    "longitude": 129.8354286,
    "population_reference_date": "2025-12-31"
  },
  {
    "id": 168,
    "town_name": "小江原３丁目",
    "town_code": "3163",
    "households": 509,
    "total_population": 1135,
    "population_age_65_and_over": 477,
    "population_age_75_and_over": 187,
    "aging_rate": 42.03,
    "late_elderly_rate": 16.48,
    "latitude": 32.7794936,
    "longitude": 129.8324786,
    "population_reference_date": "2025-12-31"
  },
  {
    "id": 169,
    "town_name": "小江原２丁目",
    "town_code": "3162",
    "households": 794,
    "total_population": 1466,
    "population_age_65_and_over": 688,
    "population_age_75_and_over": 475,
    "aging_rate": 46.93,
    "late_elderly_rate": 32.4,
    "latitude": 32.7790227,
    "longitude": 129.8401685,
    "population_reference_date": "2025-12-31"
  },
  {
    "id": 170,
    "town_name": "小江原５丁目",
    "town_code": "3165",
    "households": 353,
    "total_population": 915,
    "population_age_65_and_over": 81,
    "population_age_75_and_over": 38,
    "aging_rate": 8.85,
    "late_elderly_rate": 4.15,
    "latitude": 32.7844207,
    "longitude": 129.826302,
    "population_reference_date": "2025-12-31"
  },
  {
    "id": 171,
    "town_name": "小江原４丁目",
    "town_code": "3164",
    "households": 974,
    "total_population": 2052,
    "population_age_65_and_over": 787,
    "population_age_75_and_over": 325,
    "aging_rate": 38.35,
    "late_elderly_rate": 15.84,
    "latitude": 32.7822821,
    "longitude": 129.8307819,
    "population_reference_date": "2025-12-31"
  },
  {
    "id": 172,
    "town_name": "小江町",
    "town_code": "3140",
    "households": 242,
    "total_population": 434,
    "population_age_65_and_over": 204,
    "population_age_75_and_over": 99,
    "aging_rate": 47.0,
    "late_elderly_rate": 22.81,
    "latitude": 32.7653266,
    "longitude": 129.8165004,
    "population_reference_date": "2025-12-31"
  },
  {
    "id": 173,
    "town_name": "小浦町",
    "town_code": "3120",
    "households": 888,
    "total_population": 1719,
    "population_age_65_and_over": 627,
    "population_age_75_and_over": 353,
    "aging_rate": 36.47,
    "late_elderly_rate": 20.54,
    "latitude": 32.7562296,
    "longitude": 129.8299794,
    "population_reference_date": "2025-12-31"
  },
  {
    "id": 174,
    "town_name": "小瀬戸町",
    "town_code": "3020",
    "households": 562,
    "total_population": 1126,
    "population_age_65_and_over": 403,
    "population_age_75_and_over": 214,
    "aging_rate": 35.79,
    "late_elderly_rate": 19.01,
    "latitude": 32.7263451,
    "longitude": 129.8346797,
    "population_reference_date": "2025-12-31"
  },
  {
    "id": 175,
    "town_name": "小菅町",
    "town_code": "4400",
    "households": 727,
    "total_population": 1399,
    "population_age_65_and_over": 380,
    "population_age_75_and_over": 202,
    "aging_rate": 27.16,
    "late_elderly_rate": 14.44,
    "latitude": 32.7260152,
    "longitude": 129.8645924,
    "population_reference_date": "2025-12-31"
  },
  {
    "id": 176,
    "town_name": "尾上町",
    "town_code": "650",
    "households": 0,
    "total_population": 0,
    "population_age_65_and_over": 0,
    "population_age_75_and_over": 0,
    "aging_rate": 0.0,
    "late_elderly_rate": 0.0,
    "latitude": 32.75259,
    "longitude": 129.868733,
    "population_reference_date": "2025-12-31"
  },
  {
    "id": 177,
    "town_name": "岡町",
    "town_code": "6160",
    "households": 340,
    "total_population": 523,
    "population_age_65_and_over": 126,
    "population_age_75_and_over": 64,
    "aging_rate": 24.09,
    "late_elderly_rate": 12.24,
    "latitude": 32.7775131,
    "longitude": 129.8628922,
    "population_reference_date": "2025-12-31"
  },
  {
    "id": 178,
    "town_name": "岩屋町",
    "town_code": "6740",
    "households": 1236,
    "total_population": 2326,
    "population_age_65_and_over": 813,
    "population_age_75_and_over": 433,
    "aging_rate": 34.95,
    "late_elderly_rate": 18.62,
    "latitude": 32.7971455,
    "longitude": 129.845715,
    "population_reference_date": "2025-12-31"
  },
  {
    "id": 179,
    "town_name": "岩川町",
    "town_code": "6080",
    "households": 683,
    "total_population": 1002,
    "population_age_65_and_over": 311,
    "population_age_75_and_over": 190,
    "aging_rate": 31.04,
    "late_elderly_rate": 18.96,
    "latitude": 32.7668481,
    "longitude": 129.865419,
    "population_reference_date": "2025-12-31"
  },
  {
    "id": 180,
    "town_name": "岩瀬道町",
    "town_code": "2250",
    "households": 97,
    "total_population": 162,
    "population_age_65_and_over": 85,
    "population_age_75_and_over": 46,
    "aging_rate": 52.47,
    "late_elderly_rate": 28.4,
    "latitude": 32.7378835,
    "longitude": 129.8559897,
    "population_reference_date": "2025-12-31"
  },
  {
    "id": 181,
    "town_name": "岩見町",
    "town_code": "2020",
    "households": 866,
    "total_population": 1695,
    "population_age_65_and_over": 479,
    "population_age_75_and_over": 260,
    "aging_rate": 28.26,
    "late_elderly_rate": 15.34,
    "latitude": 32.767502,
    "longitude": 129.8534337,
    "population_reference_date": "2025-12-31"
  },
  {
    "id": 182,
    "town_name": "川上町",
    "town_code": "4230",
    "households": 433,
    "total_population": 729,
    "population_age_65_and_over": 301,
    "population_age_75_and_over": 195,
    "aging_rate": 41.29,
    "late_elderly_rate": 26.75,
    "latitude": 32.7279665,
    "longitude": 129.8778567,
    "population_reference_date": "2025-12-31"
  },
  {
    "id": 183,
    "town_name": "川内町",
    "town_code": "1250",
    "households": 85,
    "total_population": 161,
    "population_age_65_and_over": 71,
    "population_age_75_and_over": 53,
    "aging_rate": 44.1,
    "late_elderly_rate": 32.92,
    "latitude": 32.7802724,
    "longitude": 129.9872317,
    "population_reference_date": "2025-12-31"
  },
  {
    "id": 184,
    "town_name": "川原町",
    "town_code": "5810",
    "households": 340,
    "total_population": 639,
    "population_age_65_and_over": 331,
    "population_age_75_and_over": 175,
    "aging_rate": 51.8,
    "late_elderly_rate": 27.39,
    "latitude": 32.6337676,
    "longitude": 129.8229156,
    "population_reference_date": "2025-12-31"
  },
  {
    "id": 185,
    "town_name": "川口町",
    "town_code": "6090",
    "households": 781,
    "total_population": 1395,
    "population_age_65_and_over": 229,
    "population_age_75_and_over": 137,
    "aging_rate": 16.42,
    "late_elderly_rate": 9.82,
    "latitude": 32.7677954,
    "longitude": 129.8634516,
    "population_reference_date": "2025-12-31"
  },
  {
    "id": 186,
    "town_name": "川平町",
    "town_code": "6570",
    "households": 1111,
    "total_population": 2106,
    "population_age_65_and_over": 810,
    "population_age_75_and_over": 466,
    "aging_rate": 38.46,
    "late_elderly_rate": 22.13,
    "latitude": 32.8009785,
    "longitude": 129.8898238,
    "population_reference_date": "2025-12-31"
  },
  {
    "id": 187,
    "town_name": "布巻町",
    "town_code": "5850",
    "households": 673,
    "total_population": 865,
    "population_age_65_and_over": 439,
    "population_age_75_and_over": 239,
    "aging_rate": 50.75,
    "late_elderly_rate": 27.63,
    "latitude": 32.6554608,
    "longitude": 129.8381492,
    "population_reference_date": "2025-12-31"
  },
  {
    "id": 188,
    "town_name": "常盤町",
    "town_code": "4140",
    "households": 0,
    "total_population": 0,
    "population_age_65_and_over": 0,
    "population_age_75_and_over": 0,
    "aging_rate": 0.0,
    "late_elderly_rate": 0.0,
    "latitude": 32.7401173,
    "longitude": 129.8701629,
    "population_reference_date": "2025-12-31"
  },
  {
    "id": 189,
    "town_name": "平和町",
    "town_code": "6120",
    "households": 937,
    "total_population": 1643,
    "population_age_65_and_over": 397,
    "population_age_75_and_over": 222,
    "aging_rate": 24.16,
    "late_elderly_rate": 13.51,
    "latitude": 32.7749358,
    "longitude": 129.8656496,
    "population_reference_date": "2025-12-31"
  },
  {
    "id": 190,
    "town_name": "平山台１丁目",
    "town_code": "5281",
    "households": 370,
    "total_population": 807,
    "population_age_65_and_over": 437,
    "population_age_75_and_over": 234,
    "aging_rate": 54.15,
    "late_elderly_rate": 29.0,
    "latitude": 32.6626543,
    "longitude": 129.8312068,
    "population_reference_date": "2025-12-31"
  },
  {
    "id": 191,
    "town_name": "平山台２丁目",
    "town_code": "5282",
    "households": 501,
    "total_population": 1085,
    "population_age_65_and_over": 478,
    "population_age_75_and_over": 194,
    "aging_rate": 44.06,
    "late_elderly_rate": 17.88,
    "latitude": 32.6628511,
    "longitude": 129.8272063,
    "population_reference_date": "2025-12-31"
  },
  {
    "id": 192,
    "town_name": "平山町",
    "town_code": "5270",
    "households": 737,
    "total_population": 1426,
    "population_age_65_and_over": 633,
    "population_age_75_and_over": 351,
    "aging_rate": 44.39,
    "late_elderly_rate": 24.61,
    "latitude": 32.6659267,
    "longitude": 129.8439067,
    "population_reference_date": "2025-12-31"
  },
  {
    "id": 193,
    "town_name": "平戸小屋町",
    "town_code": "2160",
    "households": 331,
    "total_population": 541,
    "population_age_65_and_over": 258,
    "population_age_75_and_over": 152,
    "aging_rate": 47.69,
    "late_elderly_rate": 28.1,
    "latitude": 32.7514632,
    "longitude": 129.8519435,
    "population_reference_date": "2025-12-31"
  },
  {
    "id": 194,
    "town_name": "平瀬町",
    "town_code": "5180",
    "households": 239,
    "total_population": 471,
    "population_age_65_and_over": 147,
    "population_age_75_and_over": 78,
    "aging_rate": 31.21,
    "late_elderly_rate": 16.56,
    "latitude": 32.6887851,
    "longitude": 129.8383755,
    "population_reference_date": "2025-12-31"
  },
  {
    "id": 195,
    "town_name": "平野町",
    "town_code": "6110",
    "households": 885,
    "total_population": 1712,
    "population_age_65_and_over": 374,
    "population_age_75_and_over": 180,
    "aging_rate": 21.85,
    "late_elderly_rate": 10.51,
    "latitude": 32.7715271,
    "longitude": 129.86522,
    "population_reference_date": "2025-12-31"
  },
  {
    "id": 196,
    "town_name": "平間町",
    "town_code": "1150",
    "households": 801,
    "total_population": 1943,
    "population_age_65_and_over": 395,
    "population_age_75_and_over": 239,
    "aging_rate": 20.33,
    "late_elderly_rate": 12.3,
    "latitude": 32.7975005,
    "longitude": 129.9401773,
    "population_reference_date": "2025-12-31"
  },
  {
    "id": 197,
    "town_name": "幸町",
    "town_code": "6020",
    "households": 53,
    "total_population": 102,
    "population_age_65_and_over": 19,
    "population_age_75_and_over": 13,
    "aging_rate": 18.63,
    "late_elderly_rate": 12.75,
    "latitude": 32.7580252,
    "longitude": 129.8653741,
    "population_reference_date": "2025-12-31"
  },
  {
    "id": 198,
    "town_name": "弁天町",
    "town_code": "2130",
    "households": 264,
    "total_population": 456,
    "population_age_65_and_over": 173,
    "population_age_75_and_over": 102,
    "aging_rate": 37.94,
    "late_elderly_rate": 22.37,
    "latitude": 32.75288,
    "longitude": 129.8641065,
    "population_reference_date": "2025-12-31"
  },
  {
    "id": 199,
    "town_name": "式見町",
    "town_code": "3240",
    "households": 304,
    "total_population": 538,
    "population_age_65_and_over": 305,
    "population_age_75_and_over": 182,
    "aging_rate": 56.69,
    "late_elderly_rate": 33.83,
    "latitude": 32.7871715,
    "longitude": 129.7917662,
    "population_reference_date": "2025-12-31"
  },
  {
    "id": 200,
    "town_name": "弥生町",
    "town_code": "490",
    "households": 552,
    "total_population": 1067,
    "population_age_65_and_over": 398,
    "population_age_75_and_over": 228,
    "aging_rate": 37.3,
    "late_elderly_rate": 21.37,
    "latitude": 32.7305057,
    "longitude": 129.8947879,
    "population_reference_date": "2025-12-31"
  },
  {
    "id": 201,
    "town_name": "彦見町",
    "town_code": "230",
    "households": 421,
    "total_population": 811,
    "population_age_65_and_over": 301,
    "population_age_75_and_over": 188,
    "aging_rate": 37.11,
    "late_elderly_rate": 23.18,
    "latitude": 32.7410213,
    "longitude": 129.8919847,
    "population_reference_date": "2025-12-31"
  },
  {
    "id": 202,
    "town_name": "御船蔵町",
    "town_code": "670",
    "households": 784,
    "total_population": 1251,
    "population_age_65_and_over": 431,
    "population_age_75_and_over": 248,
    "aging_rate": 34.45,
    "late_elderly_rate": 19.82,
    "latitude": 32.7577052,
    "longitude": 129.8716101,
    "population_reference_date": "2025-12-31"
  },
  {
    "id": 203,
    "town_name": "恵美須町",
    "town_code": "630",
    "households": 345,
    "total_population": 649,
    "population_age_65_and_over": 167,
    "population_age_75_and_over": 81,
    "aging_rate": 25.73,
    "late_elderly_rate": 12.48,
    "latitude": 32.7505481,
    "longitude": 129.8745663,
    "population_reference_date": "2025-12-31"
  },
  {
    "id": 205,
    "town_name": "愛宕1丁目",
    "town_code": "471",
    "households": 567,
    "total_population": 1034,
    "population_age_65_and_over": 289,
    "population_age_75_and_over": 166,
    "aging_rate": 27.95,
    "late_elderly_rate": 16.05,
    "latitude": 32.7385872,
    "longitude": 129.8877577,
    "population_reference_date": "2025-12-31"
  },
  {
    "id": 206,
    "town_name": "愛宕3丁目",
    "town_code": "473",
    "households": 654,
    "total_population": 1040,
    "population_age_65_and_over": 369,
    "population_age_75_and_over": 211,
    "aging_rate": 35.48,
    "late_elderly_rate": 20.29,
    "latitude": 32.7335215,
    "longitude": 129.8898442,
    "population_reference_date": "2025-12-31"
  },
  {
    "id": 207,
    "town_name": "愛宕2丁目",
    "town_code": "472",
    "households": 375,
    "total_population": 610,
    "population_age_65_and_over": 239,
    "population_age_75_and_over": 139,
    "aging_rate": 39.18,
    "late_elderly_rate": 22.79,
    "latitude": 32.7375948,
    "longitude": 129.8911868,
    "population_reference_date": "2025-12-31"
  },
  {
    "id": 208,
    "town_name": "愛宕4丁目",
    "town_code": "474",
    "households": 321,
    "total_population": 616,
    "population_age_65_and_over": 189,
    "population_age_75_and_over": 125,
    "aging_rate": 30.68,
    "late_elderly_rate": 20.29,
    "latitude": 32.7352972,
    "longitude": 129.8931073,
    "population_reference_date": "2025-12-31"
  },
  {
    "id": 209,
    "town_name": "戸町１丁目",
    "town_code": "4421",
    "households": 711,
    "total_population": 1698,
    "population_age_65_and_over": 248,
    "population_age_75_and_over": 106,
    "aging_rate": 14.61,
    "late_elderly_rate": 6.24,
    "latitude": 32.7245013,
    "longitude": 129.8605753,
    "population_reference_date": "2025-12-31"
  },
  {
    "id": 210,
    "town_name": "戸町３丁目",
    "town_code": "4423",
    "households": 317,
    "total_population": 585,
    "population_age_65_and_over": 235,
    "population_age_75_and_over": 125,
    "aging_rate": 40.17,
    "late_elderly_rate": 21.37,
    "latitude": 32.7173773,
    "longitude": 129.8550251,
    "population_reference_date": "2025-12-31"
  },
  {
    "id": 211,
    "town_name": "戸町２丁目",
    "town_code": "4422",
    "households": 849,
    "total_population": 1611,
    "population_age_65_and_over": 582,
    "population_age_75_and_over": 329,
    "aging_rate": 36.13,
    "late_elderly_rate": 20.42,
    "latitude": 32.7232311,
    "longitude": 129.865344,
    "population_reference_date": "2025-12-31"
  },
  {
    "id": 212,
    "town_name": "戸町５丁目",
    "town_code": "4425",
    "households": 6,
    "total_population": 11,
    "population_age_65_and_over": 5,
    "population_age_75_and_over": 2,
    "aging_rate": 45.45,
    "late_elderly_rate": 18.18,
    "latitude": 32.7167479,
    "longitude": 129.8509323,
    "population_reference_date": "2025-12-31"
  },
  {
    "id": 213,
    "town_name": "戸町４丁目",
    "town_code": "4424",
    "households": 381,
    "total_population": 699,
    "population_age_65_and_over": 231,
    "population_age_75_and_over": 146,
    "aging_rate": 33.05,
    "late_elderly_rate": 20.89,
    "latitude": 32.7197387,
    "longitude": 129.8591836,
    "population_reference_date": "2025-12-31"
  },
  {
    "id": 214,
    "town_name": "戸石町",
    "town_code": "1260",
    "households": 1690,
    "total_population": 4273,
    "population_age_65_and_over": 740,
    "population_age_75_and_over": 396,
    "aging_rate": 17.32,
    "late_elderly_rate": 9.27,
    "latitude": 32.7662451,
    "longitude": 129.9786408,
    "population_reference_date": "2025-12-31"
  },
  {
    "id": 215,
    "town_name": "扇町",
    "town_code": "6200",
    "households": 845,
    "total_population": 1595,
    "population_age_65_and_over": 373,
    "population_age_75_and_over": 191,
    "aging_rate": 23.39,
    "late_elderly_rate": 11.97,
    "latitude": 32.7842076,
    "longitude": 129.8684543,
    "population_reference_date": "2025-12-31"
  },
  {
    "id": 216,
    "town_name": "手熊町",
    "town_code": "3180",
    "households": 147,
    "total_population": 289,
    "population_age_65_and_over": 149,
    "population_age_75_and_over": 90,
    "aging_rate": 51.56,
    "late_elderly_rate": 31.14,
    "latitude": 32.78188,
    "longitude": 129.801101,
    "population_reference_date": "2025-12-31"
  },
  {
    "id": 217,
    "town_name": "文教町",
    "town_code": "6420",
    "households": 807,
    "total_population": 1214,
    "population_age_65_and_over": 261,
    "population_age_75_and_over": 148,
    "aging_rate": 21.5,
    "late_elderly_rate": 12.19,
    "latitude": 32.7869525,
    "longitude": 129.8669973,
    "population_reference_date": "2025-12-31"
  },
  {
    "id": 218,
    "town_name": "新中川町",
    "town_code": "170",
    "households": 245,
    "total_population": 444,
    "population_age_65_and_over": 141,
    "population_age_75_and_over": 83,
    "aging_rate": 31.76,
    "late_elderly_rate": 18.69,
    "latitude": 32.751279,
    "longitude": 129.8898754,
    "population_reference_date": "2025-12-31"
  },
  {
    "id": 219,
    "town_name": "新地町",
    "town_code": "4120",
    "households": 262,
    "total_population": 403,
    "population_age_65_and_over": 158,
    "population_age_75_and_over": 88,
    "aging_rate": 39.21,
    "late_elderly_rate": 21.84,
    "latitude": 32.7410873,
    "longitude": 129.8744544,
    "population_reference_date": "2025-12-31"
  },
  {
    "id": 220,
    "town_name": "新大工町",
    "town_code": "190",
    "households": 503,
    "total_population": 913,
    "population_age_65_and_over": 255,
    "population_age_75_and_over": 126,
    "aging_rate": 27.93,
    "late_elderly_rate": 13.8,
    "latitude": 32.7527431,
    "longitude": 129.8857605,
    "population_reference_date": "2025-12-31"
  },
  {
    "id": 222,
    "town_name": "新小が倉１丁目",
    "town_code": "5001",
    "households": 216,
    "total_population": 424,
    "population_age_65_and_over": 138,
    "population_age_75_and_over": 91,
    "aging_rate": 32.55,
    "late_elderly_rate": 21.46,
    "latitude": 32.7083442,
    "longitude": 129.8606544,
    "population_reference_date": "2025-12-31"
  },
  {
    "id": 223,
    "town_name": "新小が倉２丁目",
    "town_code": "5002",
    "households": 188,
    "total_population": 356,
    "population_age_65_and_over": 125,
    "population_age_75_and_over": 88,
    "aging_rate": 35.11,
    "late_elderly_rate": 24.72,
    "latitude": 32.7080203,
    "longitude": 129.861777,
    "population_reference_date": "2025-12-31"
  },
  {
    "id": 224,
    "town_name": "新戸町１丁目",
    "town_code": "4481",
    "households": 487,
    "total_population": 977,
    "population_age_65_and_over": 412,
    "population_age_75_and_over": 237,
    "aging_rate": 42.17,
    "late_elderly_rate": 24.26,
    "latitude": 32.7129024,
    "longitude": 129.8607675,
    "population_reference_date": "2025-12-31"
  },
  {
    "id": 225,
    "town_name": "新戸町３丁目",
    "town_code": "4483",
    "households": 579,
    "total_population": 1125,
    "population_age_65_and_over": 373,
    "population_age_75_and_over": 206,
    "aging_rate": 33.16,
    "late_elderly_rate": 18.31,
    "latitude": 32.7071946,
    "longitude": 129.8738455,
    "population_reference_date": "2025-12-31"
  },
  {
    "id": 226,
    "town_name": "新戸町２丁目",
    "town_code": "4482",
    "households": 337,
    "total_population": 605,
    "population_age_65_and_over": 241,
    "population_age_75_and_over": 141,
    "aging_rate": 39.83,
    "late_elderly_rate": 23.31,
    "latitude": 32.7126089,
    "longitude": 129.8659075,
    "population_reference_date": "2025-12-31"
  },
  {
    "id": 227,
    "town_name": "新戸町４丁目",
    "town_code": "4484",
    "households": 251,
    "total_population": 900,
    "population_age_65_and_over": 49,
    "population_age_75_and_over": 21,
    "aging_rate": 5.44,
    "late_elderly_rate": 2.33,
    "latitude": 32.7114274,
    "longitude": 129.8722193,
    "population_reference_date": "2025-12-31"
  },
  {
    "id": 228,
    "town_name": "新牧野町",
    "town_code": "3560",
    "households": 188,
    "total_population": 295,
    "population_age_65_and_over": 178,
    "population_age_75_and_over": 117,
    "aging_rate": 60.34,
    "late_elderly_rate": 39.66,
    "latitude": 32.8628239,
    "longitude": 129.7120189,
    "population_reference_date": "2025-12-31"
  },
  {
    "id": 229,
    "town_name": "日の出町",
    "town_code": "4210",
    "households": 304,
    "total_population": 481,
    "population_age_65_and_over": 224,
    "population_age_75_and_over": 141,
    "aging_rate": 46.57,
    "late_elderly_rate": 29.31,
    "latitude": 32.7317985,
    "longitude": 129.8755748,
    "population_reference_date": "2025-12-31"
  },
  {
    "id": 230,
    "town_name": "早坂町",
    "town_code": "5600",
    "households": 120,
    "total_population": 211,
    "population_age_65_and_over": 111,
    "population_age_75_and_over": 67,
    "aging_rate": 52.61,
    "late_elderly_rate": 31.75,
    "latitude": 32.7274454,
    "longitude": 129.9062593,
    "population_reference_date": "2025-12-31"
  },
  {
    "id": 231,
    "town_name": "旭町",
    "town_code": "2140",
    "households": 727,
    "total_population": 1416,
    "population_age_65_and_over": 436,
    "population_age_75_and_over": 245,
    "aging_rate": 30.79,
    "late_elderly_rate": 17.3,
    "latitude": 32.7505626,
    "longitude": 129.8640718,
    "population_reference_date": "2025-12-31"
  },
  {
    "id": 233,
    "town_name": "星取１丁目",
    "town_code": "4291",
    "households": 149,
    "total_population": 264,
    "population_age_65_and_over": 126,
    "population_age_75_and_over": 77,
    "aging_rate": 47.73,
    "late_elderly_rate": 29.17,
    "latitude": 32.7232047,
    "longitude": 129.8823182,
    "population_reference_date": "2025-12-31"
  },
  {
    "id": 234,
    "town_name": "星取２丁目",
    "town_code": "4292",
    "households": 171,
    "total_population": 318,
    "population_age_65_and_over": 127,
    "population_age_75_and_over": 76,
    "aging_rate": 39.94,
    "late_elderly_rate": 23.9,
    "latitude": 32.7185962,
    "longitude": 129.8856067,
    "population_reference_date": "2025-12-31"
  },
  {
    "id": 235,
    "town_name": "春日町",
    "town_code": "1070",
    "households": 71,
    "total_population": 132,
    "population_age_65_and_over": 64,
    "population_age_75_and_over": 43,
    "aging_rate": 48.48,
    "late_elderly_rate": 32.58,
    "latitude": 32.7436475,
    "longitude": 129.9512561,
    "population_reference_date": "2025-12-31"
  },
  {
    "id": 236,
    "town_name": "春木町",
    "town_code": "2040",
    "households": 483,
    "total_population": 1087,
    "population_age_65_and_over": 225,
    "population_age_75_and_over": 119,
    "aging_rate": 20.7,
    "late_elderly_rate": 10.95,
    "latitude": 32.762992,
    "longitude": 129.8516197,
    "population_reference_date": "2025-12-31"
  },
  {
    "id": 237,
    "town_name": "昭和１丁目",
    "town_code": "6511",
    "households": 318,
    "total_population": 573,
    "population_age_65_and_over": 163,
    "population_age_75_and_over": 87,
    "aging_rate": 28.45,
    "late_elderly_rate": 15.18,
    "latitude": 32.7911227,
    "longitude": 129.8675212,
    "population_reference_date": "2025-12-31"
  },
  {
    "id": 238,
    "town_name": "昭和３丁目",
    "town_code": "6513",
    "households": 467,
    "total_population": 810,
    "population_age_65_and_over": 295,
    "population_age_75_and_over": 176,
    "aging_rate": 36.42,
    "late_elderly_rate": 21.73,
    "latitude": 32.7983425,
    "longitude": 129.8726796,
    "population_reference_date": "2025-12-31"
  },
  {
    "id": 239,
    "town_name": "昭和２丁目",
    "town_code": "6512",
    "households": 456,
    "total_population": 869,
    "population_age_65_and_over": 242,
    "population_age_75_and_over": 127,
    "aging_rate": 27.85,
    "late_elderly_rate": 14.61,
    "latitude": 32.7931126,
    "longitude": 129.8705445,
    "population_reference_date": "2025-12-31"
  },
  {
    "id": 240,
    "town_name": "晴海台町",
    "town_code": "5860",
    "households": 1177,
    "total_population": 2544,
    "population_age_65_and_over": 1138,
    "population_age_75_and_over": 494,
    "aging_rate": 44.73,
    "late_elderly_rate": 19.42,
    "latitude": 32.6618308,
    "longitude": 129.8209886,
    "population_reference_date": "2025-12-31"
  },
  {
    "id": 241,
    "town_name": "曙町",
    "town_code": "2120",
    "households": 675,
    "total_population": 1161,
    "population_age_65_and_over": 459,
    "population_age_75_and_over": 257,
    "aging_rate": 39.53,
    "late_elderly_rate": 22.14,
    "latitude": 32.7536341,
    "longitude": 129.8583574,
    "population_reference_date": "2025-12-31"
  },
  {
    "id": 242,
    "town_name": "木場町",
    "town_code": "850",
    "households": 120,
    "total_population": 248,
    "population_age_65_and_over": 118,
    "population_age_75_and_over": 58,
    "aging_rate": 47.58,
    "late_elderly_rate": 23.39,
    "latitude": 32.7729145,
    "longitude": 129.9037764,
    "population_reference_date": "2025-12-31"
  },
  {
    "id": 243,
    "town_name": "木鉢町１丁目",
    "town_code": "3011",
    "households": 223,
    "total_population": 461,
    "population_age_65_and_over": 190,
    "population_age_75_and_over": 116,
    "aging_rate": 41.21,
    "late_elderly_rate": 25.16,
    "latitude": 32.7244002,
    "longitude": 129.8430019,
    "population_reference_date": "2025-12-31"
  },
  {
    "id": 244,
    "town_name": "木鉢町２丁目",
    "town_code": "3012",
    "households": 471,
    "total_population": 947,
    "population_age_65_and_over": 306,
    "population_age_75_and_over": 141,
    "aging_rate": 32.31,
    "late_elderly_rate": 14.89,
    "latitude": 32.7337451,
    "longitude": 129.8409423,
    "population_reference_date": "2025-12-31"
  },
  {
    "id": 245,
    "town_name": "末石町",
    "town_code": "5250",
    "households": 275,
    "total_population": 488,
    "population_age_65_and_over": 176,
    "population_age_75_and_over": 112,
    "aging_rate": 36.07,
    "late_elderly_rate": 22.95,
    "latitude": 32.6837268,
    "longitude": 129.8377661,
    "population_reference_date": "2025-12-31"
  },
  {
    "id": 246,
    "town_name": "本原町",
    "town_code": "6190",
    "households": 986,
    "total_population": 1938,
    "population_age_65_and_over": 458,
    "population_age_75_and_over": 259,
    "aging_rate": 23.63,
    "late_elderly_rate": 13.36,
    "latitude": 32.7812095,
    "longitude": 129.8679096,
    "population_reference_date": "2025-12-31"
  },
  {
    "id": 247,
    "town_name": "本尾町",
    "town_code": "6310",
    "households": 747,
    "total_population": 1190,
    "population_age_65_and_over": 476,
    "population_age_75_and_over": 279,
    "aging_rate": 40.0,
    "late_elderly_rate": 23.45,
    "latitude": 32.7755437,
    "longitude": 129.8712691,
    "population_reference_date": "2025-12-31"
  },
  {
    "id": 248,
    "town_name": "本河内１丁目",
    "town_code": "111",
    "households": 303,
    "total_population": 509,
    "population_age_65_and_over": 214,
    "population_age_75_and_over": 146,
    "aging_rate": 42.04,
    "late_elderly_rate": 28.68,
    "latitude": 32.7496298,
    "longitude": 129.8976276,
    "population_reference_date": "2025-12-31"
  },
  {
    "id": 249,
    "town_name": "本河内３丁目",
    "town_code": "113",
    "households": 564,
    "total_population": 998,
    "population_age_65_and_over": 428,
    "population_age_75_and_over": 270,
    "aging_rate": 42.89,
    "late_elderly_rate": 27.05,
    "latitude": 32.7509282,
    "longitude": 129.9153864,
    "population_reference_date": "2025-12-31"
  },
  {
    "id": 250,
    "town_name": "本河内２丁目",
    "town_code": "112",
    "households": 403,
    "total_population": 628,
    "population_age_65_and_over": 292,
    "population_age_75_and_over": 171,
    "aging_rate": 46.5,
    "late_elderly_rate": 27.23,
    "latitude": 32.7501496,
    "longitude": 129.9046743,
    "population_reference_date": "2025-12-31"
  },
  {
    "id": 251,
    "town_name": "本河内４丁目",
    "town_code": "114",
    "households": 62,
    "total_population": 120,
    "population_age_65_and_over": 63,
    "population_age_75_and_over": 36,
    "aging_rate": 52.5,
    "late_elderly_rate": 30.0,
    "latitude": 32.7620893,
    "longitude": 129.9139693,
    "population_reference_date": "2025-12-31"
  },
  {
    "id": 252,
    "town_name": "本石灰町",
    "town_code": "4020",
    "households": 102,
    "total_population": 156,
    "population_age_65_and_over": 60,
    "population_age_75_and_over": 29,
    "aging_rate": 38.46,
    "late_elderly_rate": 18.59,
    "latitude": 32.7422367,
    "longitude": 129.8799443,
    "population_reference_date": "2025-12-31"
  },
  {
    "id": 253,
    "town_name": "東出津町",
    "town_code": "3550",
    "households": 97,
    "total_population": 159,
    "population_age_65_and_over": 92,
    "population_age_75_and_over": 53,
    "aging_rate": 57.86,
    "late_elderly_rate": 33.33,
    "latitude": 32.839361,
    "longitude": 129.7032644,
    "population_reference_date": "2025-12-31"
  },
  {
    "id": 254,
    "town_name": "東古川町",
    "town_code": "860",
    "households": 104,
    "total_population": 172,
    "population_age_65_and_over": 67,
    "population_age_75_and_over": 41,
    "aging_rate": 38.95,
    "late_elderly_rate": 23.84,
    "latitude": 32.745728,
    "longitude": 129.8802218,
    "population_reference_date": "2025-12-31"
  },
  {
    "id": 255,
    "town_name": "東小島町",
    "town_code": "510",
    "households": 395,
    "total_population": 555,
    "population_age_65_and_over": 170,
    "population_age_75_and_over": 100,
    "aging_rate": 30.63,
    "late_elderly_rate": 18.02,
    "latitude": 32.7396342,
    "longitude": 129.8828651,
    "population_reference_date": "2025-12-31"
  },
  {
    "id": 256,
    "town_name": "東山手町",
    "town_code": "4170",
    "households": 201,
    "total_population": 324,
    "population_age_65_and_over": 132,
    "population_age_75_and_over": 76,
    "aging_rate": 40.74,
    "late_elderly_rate": 23.46,
    "latitude": 32.7371483,
    "longitude": 129.8739651,
    "population_reference_date": "2025-12-31"
  },
  {
    "id": 257,
    "town_name": "東山町",
    "town_code": "4190",
    "households": 170,
    "total_population": 305,
    "population_age_65_and_over": 101,
    "population_age_75_and_over": 64,
    "aging_rate": 33.11,
    "late_elderly_rate": 20.98,
    "latitude": 32.7340198,
    "longitude": 129.8747665,
    "population_reference_date": "2025-12-31"
  },
  {
    "id": 258,
    "town_name": "東琴平１丁目",
    "town_code": "4371",
    "households": 148,
    "total_population": 254,
    "population_age_65_and_over": 120,
    "population_age_75_and_over": 71,
    "aging_rate": 47.24,
    "late_elderly_rate": 27.95,
    "latitude": 32.7292698,
    "longitude": 129.8656363,
    "population_reference_date": "2025-12-31"
  },
  {
    "id": 259,
    "town_name": "東琴平２丁目",
    "town_code": "4372",
    "households": 75,
    "total_population": 129,
    "population_age_65_and_over": 70,
    "population_age_75_and_over": 48,
    "aging_rate": 54.26,
    "late_elderly_rate": 37.21,
    "latitude": 32.7312057,
    "longitude": 129.8690397,
    "population_reference_date": "2025-12-31"
  },
  {
    "id": 260,
    "town_name": "東町",
    "town_code": "1170",
    "households": 1241,
    "total_population": 2734,
    "population_age_65_and_over": 667,
    "population_age_75_and_over": 401,
    "aging_rate": 24.4,
    "late_elderly_rate": 14.67,
    "latitude": 32.7829499,
    "longitude": 129.9598653,
    "population_reference_date": "2025-12-31"
  },
  {
    "id": 261,
    "town_name": "東立神町",
    "town_code": "2260",
    "households": 190,
    "total_population": 339,
    "population_age_65_and_over": 193,
    "population_age_75_and_over": 110,
    "aging_rate": 56.93,
    "late_elderly_rate": 32.45,
    "latitude": 32.7371947,
    "longitude": 129.8505282,
    "population_reference_date": "2025-12-31"
  },
  {
    "id": 262,
    "town_name": "松が枝町",
    "town_code": "4330",
    "households": 227,
    "total_population": 396,
    "population_age_65_and_over": 150,
    "population_age_75_and_over": 103,
    "aging_rate": 37.88,
    "late_elderly_rate": 26.01,
    "latitude": 32.7359651,
    "longitude": 129.8680944,
    "population_reference_date": "2025-12-31"
  },
  {
    "id": 263,
    "town_name": "松原町",
    "town_code": "1190",
    "households": 362,
    "total_population": 785,
    "population_age_65_and_over": 236,
    "population_age_75_and_over": 147,
    "aging_rate": 30.06,
    "late_elderly_rate": 18.73,
    "latitude": 32.8056372,
    "longitude": 129.9472134,
    "population_reference_date": "2025-12-31"
  },
  {
    "id": 264,
    "town_name": "松山町",
    "town_code": "6150",
    "households": 167,
    "total_population": 268,
    "population_age_65_and_over": 73,
    "population_age_75_and_over": 36,
    "aging_rate": 27.24,
    "late_elderly_rate": 13.43,
    "latitude": 32.774053,
    "longitude": 129.8618354,
    "population_reference_date": "2025-12-31"
  },
  {
    "id": 265,
    "town_name": "松崎町",
    "town_code": "3300",
    "households": 83,
    "total_population": 128,
    "population_age_65_and_over": 62,
    "population_age_75_and_over": 30,
    "aging_rate": 48.44,
    "late_elderly_rate": 23.44,
    "latitude": 32.8534013,
    "longitude": 129.7426787,
    "population_reference_date": "2025-12-31"
  },
  {
    "id": 266,
    "town_name": "柳田町",
    "town_code": "5220",
    "households": 99,
    "total_population": 176,
    "population_age_65_and_over": 57,
    "population_age_75_and_over": 28,
    "aging_rate": 32.39,
    "late_elderly_rate": 15.91,
    "latitude": 32.6855279,
    "longitude": 129.8456794,
    "population_reference_date": "2025-12-31"
  },
  {
    "id": 267,
    "town_name": "柳谷町",
    "town_code": "6770",
    "households": 645,
    "total_population": 1117,
    "population_age_65_and_over": 414,
    "population_age_75_and_over": 240,
    "aging_rate": 37.06,
    "late_elderly_rate": 21.49,
    "latitude": 32.7925434,
    "longitude": 129.855139,
    "population_reference_date": "2025-12-31"
  },
  {
    "id": 268,
    "town_name": "柿泊町",
    "town_code": "3150",
    "households": 236,
    "total_population": 484,
    "population_age_65_and_over": 247,
    "population_age_75_and_over": 141,
    "aging_rate": 51.03,
    "late_elderly_rate": 29.13,
    "latitude": 32.7706388,
    "longitude": 129.8106442,
    "population_reference_date": "2025-12-31"
  },
  {
    "id": 269,
    "town_name": "栄町",
    "town_code": "370",
    "households": 119,
    "total_population": 220,
    "population_age_65_and_over": 70,
    "population_age_75_and_over": 43,
    "aging_rate": 31.82,
    "late_elderly_rate": 19.55,
    "latitude": 32.7476457,
    "longitude": 129.8781623,
    "population_reference_date": "2025-12-31"
  },
  {
    "id": 270,
    "town_name": "桜木町",
    "town_code": "530",
    "households": 316,
    "total_population": 557,
    "population_age_65_and_over": 198,
    "population_age_75_and_over": 118,
    "aging_rate": 35.55,
    "late_elderly_rate": 21.18,
    "latitude": 32.7295445,
    "longitude": 129.8909274,
    "population_reference_date": "2025-12-31"
  },
  {
    "id": 271,
    "town_name": "桜町",
    "town_code": "620",
    "households": 251,
    "total_population": 460,
    "population_age_65_and_over": 103,
    "population_age_75_and_over": 57,
    "aging_rate": 22.39,
    "late_elderly_rate": 12.39,
    "latitude": 32.74981,
    "longitude": 129.8780852,
    "population_reference_date": "2025-12-31"
  },
  {
    "id": 272,
    "town_name": "桜馬場１丁目",
    "town_code": "181",
    "households": 331,
    "total_population": 607,
    "population_age_65_and_over": 202,
    "population_age_75_and_over": 111,
    "aging_rate": 33.28,
    "late_elderly_rate": 18.29,
    "latitude": 32.7528052,
    "longitude": 129.8882978,
    "population_reference_date": "2025-12-31"
  },
  {
    "id": 273,
    "town_name": "桜馬場２丁目",
    "town_code": "182",
    "households": 314,
    "total_population": 601,
    "population_age_65_and_over": 201,
    "population_age_75_and_over": 106,
    "aging_rate": 33.44,
    "late_elderly_rate": 17.64,
    "latitude": 32.7535105,
    "longitude": 129.8908149,
    "population_reference_date": "2025-12-31"
  },
  {
    "id": 274,
    "town_name": "桶屋町",
    "town_code": "340",
    "households": 259,
    "total_population": 349,
    "population_age_65_and_over": 95,
    "population_age_75_and_over": 50,
    "aging_rate": 27.22,
    "late_elderly_rate": 14.33,
    "latitude": 32.7496728,
    "longitude": 129.8810791,
    "population_reference_date": "2025-12-31"
  },
  {
    "id": 275,
    "town_name": "梁川町",
    "town_code": "2060",
    "households": 600,
    "total_population": 1045,
    "population_age_65_and_over": 287,
    "population_age_75_and_over": 166,
    "aging_rate": 27.46,
    "late_elderly_rate": 15.89,
    "latitude": 32.7626165,
    "longitude": 129.8589907,
    "population_reference_date": "2025-12-31"
  },
  {
    "id": 276,
    "town_name": "梅香崎町",
    "town_code": "4130",
    "households": 142,
    "total_population": 198,
    "population_age_65_and_over": 49,
    "population_age_75_and_over": 24,
    "aging_rate": 24.75,
    "late_elderly_rate": 12.12,
    "latitude": 32.7400561,
    "longitude": 129.8745245,
    "population_reference_date": "2025-12-31"
  },
  {
    "id": 277,
    "town_name": "椎の木町",
    "town_code": "4240",
    "households": 419,
    "total_population": 663,
    "population_age_65_and_over": 319,
    "population_age_75_and_over": 215,
    "aging_rate": 48.11,
    "late_elderly_rate": 32.43,
    "latitude": 32.7286604,
    "longitude": 129.8807443,
    "population_reference_date": "2025-12-31"
  },
  {
    "id": 278,
    "town_name": "椿が丘町",
    "town_code": "5830",
    "households": 435,
    "total_population": 922,
    "population_age_65_and_over": 409,
    "population_age_75_and_over": 283,
    "aging_rate": 44.36,
    "late_elderly_rate": 30.69,
    "latitude": 32.6456236,
    "longitude": 129.8288755,
    "population_reference_date": "2025-12-31"
  },
  {
    "id": 279,
    "town_name": "横尾１丁目",
    "town_code": "6701",
    "households": 294,
    "total_population": 554,
    "population_age_65_and_over": 227,
    "population_age_75_and_over": 162,
    "aging_rate": 40.97,
    "late_elderly_rate": 29.24,
    "latitude": 32.8119518,
    "longitude": 129.8380964,
    "population_reference_date": "2025-12-31"
  },
  {
    "id": 280,
    "town_name": "横尾３丁目",
    "town_code": "6703",
    "households": 787,
    "total_population": 1616,
    "population_age_65_and_over": 592,
    "population_age_75_and_over": 370,
    "aging_rate": 36.63,
    "late_elderly_rate": 22.9,
    "latitude": 32.8151092,
    "longitude": 129.8366627,
    "population_reference_date": "2025-12-31"
  },
  {
    "id": 281,
    "town_name": "横尾２丁目",
    "town_code": "6702",
    "households": 546,
    "total_population": 1047,
    "population_age_65_and_over": 513,
    "population_age_75_and_over": 356,
    "aging_rate": 49.0,
    "late_elderly_rate": 34.0,
    "latitude": 32.8127106,
    "longitude": 129.8344844,
    "population_reference_date": "2025-12-31"
  },
  {
    "id": 282,
    "town_name": "横尾５丁目",
    "town_code": "6705",
    "households": 509,
    "total_population": 994,
    "population_age_65_and_over": 443,
    "population_age_75_and_over": 203,
    "aging_rate": 44.57,
    "late_elderly_rate": 20.42,
    "latitude": 32.8150407,
    "longitude": 129.826867,
    "population_reference_date": "2025-12-31"
  },
  {
    "id": 283,
    "town_name": "横尾４丁目",
    "town_code": "6704",
    "households": 290,
    "total_population": 612,
    "population_age_65_and_over": 291,
    "population_age_75_and_over": 218,
    "aging_rate": 47.55,
    "late_elderly_rate": 35.62,
    "latitude": 32.8164209,
    "longitude": 129.8305121,
    "population_reference_date": "2025-12-31"
  },